tatripid,log_time,stop_name,stop_id,route_id,direction,scheduled_start_date,scheduled_start_time,actual_arrival_time,scheduled_arrival_time
10706,2023-12-11T08:13,'FIFTH AVE + MOREWOOD AVE',1177,71B,OUTBOUND,2023-12-11,07:43,08:13,08:03
5920,2023-12-11T08:12,'FORBES AVE + MOREWOOD (CARNEGIE MELLON)',7117,61D,OUTBOUND,2023-12-11,07:58,08:13,08:12
6457,2023-12-11T08:13,'FORBES AVE + MOREWOOD (CARNEGIE MELLON)',7117,61A,OUTBOUND,2023-12-11,07:48,08:13,08:06
9366,2023-12-11T08:21,'FIFTH AVE + MOREWOOD AVE',1177,71D,OUTBOUND,2023-12-11,08:05,08:22,08:16
6458,2023-12-11T08:24,'FORBES AVE + MOREWOOD (CARNEGIE MELLON)',7117,61C,OUTBOUND,2023-12-11,07:52,08:24,08:11
6459,2023-12-11T08:24,'FORBES AVE + MOREWOOD (CARNEGIE MELLON)',7117,61B,OUTBOUND,2023-12-11,07:58,08:24,08:17
5921,2023-12-11T08:26,'FORBES AVE + MOREWOOD (CARNEGIE MELLON)',7117,61D,OUTBOUND,2023-12-11,08:13,08:28,08:27
10707,2023-12-11T08:27,'FIFTH AVE + MOREWOOD AVE',1177,71B,OUTBOUND,2023-12-11,07:58,08:28,08:18
9127,2023-12-11T08:34,'FORBES AVE + MOREWOOD (CARNEGIE MELLON)',7117,69,OUTBOUND,2023-12-11,08:10,08:34,08:24
9369,2023-12-11T08:37,'FIFTH AVE + MOREWOOD AVE',1177,71D,OUTBOUND,2023-12-11,08:20,08:39,08:30
5922,2023-12-11T08:41,'FORBES AVE + MOREWOOD (CARNEGIE MELLON)',7117,61D,OUTBOUND,2023-12-11,08:28,08:41,08:42
6464,2023-12-11T08:42,'FORBES AVE + MOREWOOD (CARNEGIE MELLON)',7117,61C,OUTBOUND,2023-12-11,08:22,08:43,08:35
6463,2023-12-11T08:42,'FORBES AVE + MOREWOOD (CARNEGIE MELLON)',7117,61A,OUTBOUND,2023-12-11,08:19,08:43,08:37
6462,2023-12-11T08:44,'FORBES AVE + MOREWOOD (CARNEGIE MELLON)',7117,61B,OUTBOUND,2023-12-11,08:13,08:44,08:32
6465,2023-12-11T08:45,'FORBES AVE + MOREWOOD (CARNEGIE MELLON)',7117,61B,OUTBOUND,2023-12-11,08:28,08:46,08:45
9128,2023-12-11T08:46,'FORBES AVE + MOREWOOD (CARNEGIE MELLON)',7117,67,OUTBOUND,2023-12-11,08:30,08:46,08:46
9267,2023-12-11T08:46,'FIFTH AVE + MOREWOOD AVE',1177,58,OUTBOUND,2023-12-11,07:56,08:47,08:39
10708,2023-12-11T08:50,'FIFTH AVE + MOREWOOD AVE',1177,71B,OUTBOUND,2023-12-11,08:13,08:50,08:33
9372,2023-12-11T08:51,'FIFTH AVE + MOREWOOD AVE',1177,71D,OUTBOUND,2023-12-11,08:35,08:51,08:46
10709,2023-12-11T08:54,'FIFTH AVE + MOREWOOD AVE',1177,71B,OUTBOUND,2023-12-11,08:28,08:54,08:48
5923,2023-12-11T08:54,'FORBES AVE + MOREWOOD (CARNEGIE MELLON)',7117,61D,OUTBOUND,2023-12-11,08:43,08:54,08:57
6467,2023-12-11T09:05,'FORBES AVE + MOREWOOD (CARNEGIE MELLON)',7117,61C,OUTBOUND,2023-12-11,08:36,09:06,08:55
6468,2023-12-11T09:05,'FORBES AVE + MOREWOOD (CARNEGIE MELLON)',7117,61B,OUTBOUND,2023-12-11,08:41,09:06,08:58
6466,2023-12-11T09:05,'FORBES AVE + MOREWOOD (CARNEGIE MELLON)',7117,61A,OUTBOUND,2023-12-11,08:33,09:06,08:51
6469,2023-12-11T09:06,'FORBES AVE + MOREWOOD (CARNEGIE MELLON)',7117,61A,OUTBOUND,2023-12-11,08:48,09:08,09:06
6470,2023-12-11T09:06,'FORBES AVE + MOREWOOD (CARNEGIE MELLON)',7117,61C,OUTBOUND,2023-12-11,08:51,09:12,09:09
5924,2023-12-11T09:06,'FORBES AVE + MOREWOOD (CARNEGIE MELLON)',7117,61D,OUTBOUND,2023-12-11,08:58,09:12,09:12
10710,2023-12-11T09:15,'FIFTH AVE + MOREWOOD AVE',1177,71B,OUTBOUND,2023-12-11,08:43,09:16,09:03
10711,2023-12-11T09:17,'FIFTH AVE + MOREWOOD AVE',1177,71B,OUTBOUND,2023-12-11,08:58,09:18,09:18
9378,2023-12-11T09:17,'FIFTH AVE + MOREWOOD AVE',1177,71D,OUTBOUND,2023-12-11,09:05,09:18,09:16
6471,2023-12-11T09:18,'FORBES AVE + MOREWOOD (CARNEGIE MELLON)',7117,61B,OUTBOUND,2023-12-11,08:56,09:19,09:13
9129,2023-12-11T09:19,'FORBES AVE + MOREWOOD (CARNEGIE MELLON)',7117,69,OUTBOUND,2023-12-11,09:00,09:19,09:14
6472,2023-12-11T09:22,'FORBES AVE + MOREWOOD (CARNEGIE MELLON)',7117,61A,OUTBOUND,2023-12-11,09:03,09:23,09:19
9130,2023-12-11T09:27,'FORBES AVE + MOREWOOD (CARNEGIE MELLON)',7117,67,OUTBOUND,2023-12-11,09:05,09:28,09:19
6473,2023-12-11T09:28,'FORBES AVE + MOREWOOD (CARNEGIE MELLON)',7117,61C,OUTBOUND,2023-12-11,09:05,09:29,09:23
6475,2023-12-11T09:28,'FORBES AVE + MOREWOOD (CARNEGIE MELLON)',7117,61A,OUTBOUND,2023-12-11,09:18,09:34,09:34
10712,2023-12-11T09:28,'FIFTH AVE + MOREWOOD AVE',1177,71B,OUTBOUND,2023-12-11,09:13,09:35,09:32
6474,2023-12-11T09:28,'FORBES AVE + MOREWOOD (CARNEGIE MELLON)',7117,61B,OUTBOUND,2023-12-11,09:09,09:35,09:26
9381,2023-12-11T09:28,'FIFTH AVE + MOREWOOD AVE',1177,71D,OUTBOUND,2023-12-11,09:20,09:35,09:31
6476,2023-12-11T09:39,'FORBES AVE + MOREWOOD (CARNEGIE MELLON)',7117,61C,OUTBOUND,2023-12-11,09:20,09:39,09:38
5926,2023-12-11T09:39,'FORBES AVE + MOREWOOD (CARNEGIE MELLON)',7117,61D,OUTBOUND,2023-12-11,09:28,09:41,09:43
9384,2023-12-11T09:38,'FIFTH AVE + MOREWOOD AVE',1177,71D,OUTBOUND,2023-12-11,09:35,09:44,09:46
9269,2023-12-11T09:39,'FIFTH AVE + MOREWOOD AVE',1177,58,OUTBOUND,2023-12-11,09:00,09:45,09:42
6480,2023-12-11T09:34,'FORBES AVE + MOREWOOD (CARNEGIE MELLON)',7117,61B,OUTBOUND,2023-12-11,09:39,09:50,09:56
6477,2023-12-11T09:39,'FORBES AVE + MOREWOOD (CARNEGIE MELLON)',7117,61B,OUTBOUND,2023-12-11,09:24,09:50,09:41
6479,2023-12-11T09:35,'FORBES AVE + MOREWOOD (CARNEGIE MELLON)',7117,61C,OUTBOUND,2023-12-11,09:36,09:51,09:53
10713,2023-12-11T09:39,'FIFTH AVE + MOREWOOD AVE',1177,71B,OUTBOUND,2023-12-11,09:27,09:51,09:46
6478,2023-12-11T09:39,'FORBES AVE + MOREWOOD (CARNEGIE MELLON)',7117,61A,OUTBOUND,2023-12-11,09:33,09:52,09:49
5927,2023-12-11T09:38,'FORBES AVE + MOREWOOD (CARNEGIE MELLON)',7117,61D,OUTBOUND,2023-12-11,09:43,09:58,09:58
6481,2023-12-11T09:38,'FORBES AVE + MOREWOOD (CARNEGIE MELLON)',7117,61A,OUTBOUND,2023-12-11,09:48,10:04,10:04
9387,2023-12-11T09:38,'FIFTH AVE + MOREWOOD AVE',1177,71D,OUTBOUND,2023-12-11,09:50,10:05,10:01
10714,2023-12-11T09:38,'FIFTH AVE + MOREWOOD AVE',1177,71B,OUTBOUND,2023-12-11,09:42,10:07,10:01
9277,2023-12-11T16:51,'FIFTH AVE + MOREWOOD AVE',1177,58,OUTBOUND,2023-12-11,16:10,16:52,16:56
6549,2023-12-11T16:55,'FORBES AVE + MOREWOOD (CARNEGIE MELLON)',7117,61B,OUTBOUND,2023-12-11,16:38,16:57,17:00
5951,2023-12-11T17:09,'FORBES AVE + MOREWOOD (CARNEGIE MELLON)',7117,61D,OUTBOUND,2023-12-11,16:53,17:11,17:13
6551,2023-12-11T17:09,'FORBES AVE + MOREWOOD (CARNEGIE MELLON)',7117,61C,OUTBOUND,2023-12-11,16:49,17:13,17:10
6552,2023-12-11T17:09,'FORBES AVE + MOREWOOD (CARNEGIE MELLON)',7117,61B,OUTBOUND,2023-12-11,16:53,17:13,17:15
9459,2023-12-11T17:09,'FIFTH AVE + MOREWOOD AVE',1177,71D,OUTBOUND,2023-12-11,17:00,17:15,17:14
6553,2023-12-11T17:28,'FORBES AVE + MOREWOOD (CARNEGIE MELLON)',7117,61A,OUTBOUND,2023-12-11,17:01,17:28,17:19
6554,2023-12-11T17:28,'FORBES AVE + MOREWOOD (CARNEGIE MELLON)',7117,61C,OUTBOUND,2023-12-11,17:02,17:28,17:20
6555,2023-12-11T17:31,'FORBES AVE + MOREWOOD (CARNEGIE MELLON)',7117,61B,OUTBOUND,2023-12-11,17:07,17:31,17:28
5952,2023-12-11T17:31,'FORBES AVE + MOREWOOD (CARNEGIE MELLON)',7117,61D,OUTBOUND,2023-12-11,17:08,17:31,17:28
9278,2023-12-11T17:31,'FIFTH AVE + MOREWOOD AVE',1177,58,OUTBOUND,2023-12-11,16:45,17:32,17:31
10738,2023-12-11T17:31,'FIFTH AVE + MOREWOOD AVE',1177,71B,OUTBOUND,2023-12-11,16:57,17:33,17:20
10739,2023-12-11T17:31,'FIFTH AVE + MOREWOOD AVE',1177,71B,OUTBOUND,2023-12-11,17:12,17:33,17:34
9462,2023-12-11T17:31,'FIFTH AVE + MOREWOOD AVE',1177,71D,OUTBOUND,2023-12-11,17:15,17:34,17:29
9153,2023-12-11T17:36,'FORBES AVE + MOREWOOD (CARNEGIE MELLON)',7117,67,OUTBOUND,2023-12-11,17:15,17:37,17:31
5953,2023-12-11T17:43,'FORBES AVE + MOREWOOD (CARNEGIE MELLON)',7117,61D,OUTBOUND,2023-12-11,17:23,17:44,17:43
6557,2023-12-11T17:44,'FORBES AVE + MOREWOOD (CARNEGIE MELLON)',7117,61C,OUTBOUND,2023-12-11,17:17,17:46,17:35
6558,2023-12-11T17:44,'FORBES AVE + MOREWOOD (CARNEGIE MELLON)',7117,61B,OUTBOUND,2023-12-11,17:22,17:46,17:43
9154,2023-12-11T17:48,'FORBES AVE + MOREWOOD (CARNEGIE MELLON)',7117,69,OUTBOUND,2023-12-11,17:20,17:48,17:38
6560,2023-12-11T17:58,'FORBES AVE + MOREWOOD (CARNEGIE MELLON)',7117,61C,OUTBOUND,2023-12-11,17:32,17:59,17:50
5954,2023-12-11T17:59,'FORBES AVE + MOREWOOD (CARNEGIE MELLON)',7117,61D,OUTBOUND,2023-12-11,17:38,18:00,17:58
10741,2023-12-11T18:00,'FIFTH AVE + MOREWOOD AVE',1177,71B,OUTBOUND,2023-12-11,17:38,18:00,18:00
9468,2023-12-11T18:00,'FIFTH AVE + MOREWOOD AVE',1177,71D,OUTBOUND,2023-12-11,17:45,18:00,17:59
10740,2023-12-11T18:00,'FIFTH AVE + MOREWOOD AVE',1177,71B,OUTBOUND,2023-12-11,17:23,18:01,17:45
6559,2023-12-11T18:02,'FORBES AVE + MOREWOOD (CARNEGIE MELLON)',7117,61A,OUTBOUND,2023-12-11,17:31,18:04,17:49
9155,2023-12-11T18:08,'FORBES AVE + MOREWOOD (CARNEGIE MELLON)',7117,67,OUTBOUND,2023-12-11,17:50,18:09,18:05
6564,2023-12-11T18:09,'FORBES AVE + MOREWOOD (CARNEGIE MELLON)',7117,61B,OUTBOUND,2023-12-11,17:50,18:10,18:11
6562,2023-12-11T18:09,'FORBES AVE + MOREWOOD (CARNEGIE MELLON)',7117,61A,OUTBOUND,2023-12-11,17:46,18:11,18:04
6563,2023-12-11T18:09,'FORBES AVE + MOREWOOD (CARNEGIE MELLON)',7117,61C,OUTBOUND,2023-12-11,17:47,18:11,18:05
9471,2023-12-11T18:14,'FIFTH AVE + MOREWOOD AVE',1177,71D,OUTBOUND,2023-12-11,18:00,18:14,18:12
5955,2023-12-11T18:13,'FORBES AVE + MOREWOOD (CARNEGIE MELLON)',7117,61D,OUTBOUND,2023-12-11,17:53,18:15,18:13
6567,2023-12-11T18:36,'FORBES AVE + MOREWOOD (CARNEGIE MELLON)',7117,61C,OUTBOUND,2023-12-11,18:02,18:36,18:19
6571,2023-12-11T18:36,'FORBES AVE + MOREWOOD (CARNEGIE MELLON)',7117,61A,OUTBOUND,2023-12-11,18:28,18:45,18:45
5957,2023-12-11T18:36,'FORBES AVE + MOREWOOD (CARNEGIE MELLON)',7117,61D,OUTBOUND,2023-12-11,18:27,18:45,18:45
6573,2023-12-11T18:30,'FORBES AVE + MOREWOOD (CARNEGIE MELLON)',7117,61B,OUTBOUND,2023-12-11,18:34,18:46,18:50
6568,2023-12-11T18:36,'FORBES AVE + MOREWOOD (CARNEGIE MELLON)',7117,61A,OUTBOUND,2023-12-11,18:13,18:49,18:30
9477,2023-12-11T18:36,'FIFTH AVE + MOREWOOD AVE',1177,71D,OUTBOUND,2023-12-11,18:37,18:53,18:49
6572,2023-12-11T18:35,'FORBES AVE + MOREWOOD (CARNEGIE MELLON)',7117,61C,OUTBOUND,2023-12-11,18:31,18:59,18:48
5958,2023-12-11T18:36,'FORBES AVE + MOREWOOD (CARNEGIE MELLON)',7117,61D,OUTBOUND,2023-12-11,18:47,19:02,19:02
10745,2023-12-11T19:04,'FIFTH AVE + MOREWOOD AVE',1177,71B,OUTBOUND,2023-12-11,18:40,19:05,19:00
9480,2023-12-11T19:05,'FIFTH AVE + MOREWOOD AVE',1177,71D,OUTBOUND,2023-12-11,18:57,19:07,19:09
6574,2023-12-11T19:06,'FORBES AVE + MOREWOOD (CARNEGIE MELLON)',7117,61A,OUTBOUND,2023-12-11,18:48,19:07,19:05
6576,2023-12-11T19:16,'FORBES AVE + MOREWOOD (CARNEGIE MELLON)',7117,61B,OUTBOUND,2023-12-11,18:54,19:16,19:10
9158,2023-12-11T19:18,'FORBES AVE + MOREWOOD (CARNEGIE MELLON)',7117,67,OUTBOUND,2023-12-11,19:00,19:19,19:12
5959,2023-12-11T19:24,'FORBES AVE + MOREWOOD (CARNEGIE MELLON)',7117,61D,OUTBOUND,2023-12-11,19:07,19:24,19:21
6577,2023-12-11T19:24,'FORBES AVE + MOREWOOD (CARNEGIE MELLON)',7117,61A,OUTBOUND,2023-12-11,19:06,19:25,19:22
6575,2023-12-11T19:24,'FORBES AVE + MOREWOOD (CARNEGIE MELLON)',7117,61C,OUTBOUND,2023-12-11,18:51,19:25,19:08
10746,2023-12-11T19:24,'FIFTH AVE + MOREWOOD AVE',1177,71B,OUTBOUND,2023-12-11,19:00,19:26,19:19
9280,2023-12-11T19:24,'FIFTH AVE + MOREWOOD AVE',1177,58,OUTBOUND,2023-12-11,18:45,19:28,19:23
9159,2023-12-11T19:27,'FORBES AVE + MOREWOOD (CARNEGIE MELLON)',7117,69,OUTBOUND,2023-12-11,19:10,19:28,19:25
9483,2023-12-11T19:28,'FIFTH AVE + MOREWOOD AVE',1177,71D,OUTBOUND,2023-12-11,19:20,19:32,19:32
6579,2023-12-11T19:32,'FORBES AVE + MOREWOOD (CARNEGIE MELLON)',7117,61B,OUTBOUND,2023-12-11,19:14,19:35,19:30
6578,2023-12-11T19:36,'FORBES AVE + MOREWOOD (CARNEGIE MELLON)',7117,61C,OUTBOUND,2023-12-11,19:11,19:39,19:26
6580,2023-12-11T19:39,'FORBES AVE + MOREWOOD (CARNEGIE MELLON)',7117,61A,OUTBOUND,2023-12-11,19:26,19:42,19:42
10747,2023-12-11T19:33,'FIFTH AVE + MOREWOOD AVE',1177,71B,OUTBOUND,2023-12-11,19:19,19:45,19:38
5960,2023-12-11T19:47,'FORBES AVE + MOREWOOD (CARNEGIE MELLON)',7117,61D,OUTBOUND,2023-12-11,19:36,19:52,19:50
6582,2023-12-11T19:53,'FORBES AVE + MOREWOOD (CARNEGIE MELLON)',7117,61B,OUTBOUND,2023-12-11,19:38,19:57,19:54
9486,2023-12-11T20:01,'FIFTH AVE + MOREWOOD AVE',1177,71D,OUTBOUND,2023-12-11,19:50,20:06,20:02
9161,2023-12-11T20:11,'FORBES AVE + MOREWOOD (CARNEGIE MELLON)',7117,69,OUTBOUND,2023-12-11,20:00,20:13,20:14
10748,2023-12-11T20:12,'FIFTH AVE + MOREWOOD AVE',1177,71B,OUTBOUND,2023-12-11,19:46,20:14,20:05
9160,2023-12-11T20:15,'FORBES AVE + MOREWOOD (CARNEGIE MELLON)',7117,67,OUTBOUND,2023-12-11,19:55,20:16,20:09
5961,2023-12-11T20:16,'FORBES AVE + MOREWOOD (CARNEGIE MELLON)',7117,61D,OUTBOUND,2023-12-11,20:04,20:17,20:18
9281,2023-12-11T20:22,'FIFTH AVE + MOREWOOD AVE',1177,58,OUTBOUND,2023-12-11,19:45,20:25,20:23
6584,2023-12-11T20:26,'FORBES AVE + MOREWOOD (CARNEGIE MELLON)',7117,61C,OUTBOUND,2023-12-11,20:01,20:27,20:16
6585,2023-12-11T20:26,'FORBES AVE + MOREWOOD (CARNEGIE MELLON)',7117,61B,OUTBOUND,2023-12-11,20:08,20:28,20:24
9489,2023-12-11T20:32,'FIFTH AVE + MOREWOOD AVE',1177,71D,OUTBOUND,2023-12-11,20:20,20:33,20:30
6586,2023-12-11T20:41,'FORBES AVE + MOREWOOD (CARNEGIE MELLON)',7117,61A,OUTBOUND,2023-12-11,20:26,20:43,20:41
10749,2023-12-11T20:47,'FIFTH AVE + MOREWOOD AVE',1177,71B,OUTBOUND,2023-12-11,20:16,20:49,20:35
6588,2023-12-11T20:53,'FORBES AVE + MOREWOOD (CARNEGIE MELLON)',7117,61B,OUTBOUND,2023-12-11,20:38,20:54,20:53
6587,2023-12-11T20:53,'FORBES AVE + MOREWOOD (CARNEGIE MELLON)',7117,61C,OUTBOUND,2023-12-11,20:33,20:54,20:48
9492,2023-12-11T21:02,'FIFTH AVE + MOREWOOD AVE',1177,71D,OUTBOUND,2023-12-11,20:50,21:02,21:00
9163,2023-12-11T21:05,'FORBES AVE + MOREWOOD (CARNEGIE MELLON)',7117,67,OUTBOUND,2023-12-11,20:50,21:07,21:03
9162,2023-12-11T21:08,'FORBES AVE + MOREWOOD (CARNEGIE MELLON)',7117,69,OUTBOUND,2023-12-11,20:50,21:10,21:04
6589,2023-12-11T21:14,'FORBES AVE + MOREWOOD (CARNEGIE MELLON)',7117,61A,OUTBOUND,2023-12-11,20:56,21:14,21:11
9282,2023-12-11T21:17,'FIFTH AVE + MOREWOOD AVE',1177,58,OUTBOUND,2023-12-11,20:45,21:18,21:22
5963,2023-12-11T21:17,'FORBES AVE + MOREWOOD (CARNEGIE MELLON)',7117,61D,OUTBOUND,2023-12-11,21:06,21:18,21:18
10750,2023-12-11T21:17,'FIFTH AVE + MOREWOOD AVE',1177,71B,OUTBOUND,2023-12-11,20:46,21:19,21:03
6591,2023-12-11T21:26,'FORBES AVE + MOREWOOD (CARNEGIE MELLON)',7117,61B,OUTBOUND,2023-12-11,21:08,21:27,21:22
6590,2023-12-11T21:26,'FORBES AVE + MOREWOOD (CARNEGIE MELLON)',7117,61C,OUTBOUND,2023-12-11,21:02,21:27,21:17
9165,2023-12-11T21:49,'FORBES AVE + MOREWOOD (CARNEGIE MELLON)',7117,67,OUTBOUND,2023-12-11,21:45,22:01,21:58
9164,2023-12-11T21:59,'FORBES AVE + MOREWOOD (CARNEGIE MELLON)',7117,69,OUTBOUND,2023-12-11,21:40,21:59,21:52
6593,2023-12-11T21:59,'FORBES AVE + MOREWOOD (CARNEGIE MELLON)',7117,61C,OUTBOUND,2023-12-11,21:33,22:03,21:48
6594,2023-12-11T21:58,'FORBES AVE + MOREWOOD (CARNEGIE MELLON)',7117,61B,OUTBOUND,2023-12-11,21:38,22:03,21:53
9498,2023-12-11T21:59,'FIFTH AVE + MOREWOOD AVE',1177,71D,OUTBOUND,2023-12-11,21:50,22:04,22:00
6596,2023-12-11T21:59,'FORBES AVE + MOREWOOD (CARNEGIE MELLON)',7117,61C,OUTBOUND,2023-12-11,22:03,22:18,22:17
9283,2023-12-11T21:59,'FIFTH AVE + MOREWOOD AVE',1177,58,OUTBOUND,2023-12-11,21:45,22:22,22:20
5965,2023-12-11T21:59,'FORBES AVE + MOREWOOD (CARNEGIE MELLON)',7117,61D,OUTBOUND,2023-12-11,22:06,22:25,22:16
1866,2023-12-14T17:08,'FIFTH AVE + OAKLAND AVE',2565,54,INBOUND,2023-12-14,16:37,17:08,17:00
2111,2023-12-14T17:08,'FIFTH  AVE + ATWOOD ST',36,54,OUTBOUND,2023-12-14,16:14,17:08,17:05
9150,2023-12-14T17:08,'FORBES AVE + MOREWOOD (CARNEGIE MELLON)',7117,67,OUTBOUND,2023-12-14,16:05,17:08,16:21
8873,2023-12-14T17:08,'FIFTH  AVE + ATWOOD ST',36,75,INBOUND,2023-12-14,16:15,17:09,17:03
9458,2023-12-14T17:07,'FIFTH  AVE + ATWOOD ST',36,71C,OUTBOUND,2023-12-14,16:57,17:10,12:47
5952,2023-12-14T17:09,'FIFTH  AVE + ATWOOD ST',36,61D,OUTBOUND,2023-12-14,17:08,17:10,23:09
6042,2023-12-14T17:09,'FORBES AVE + MOREWOOD AVE FS (CARNEGIE MELLON)',4407,61B,INBOUND,2023-12-14,16:36,17:10,17:08
7451,2023-12-14T17:10,'FORBES + MURRAY FS',7096,61C,INBOUND,2023-12-14,16:22,17:11,17:01
6545,2023-12-14T17:11,'FORBES AVE + MURRAY AVE',7126,61C,OUTBOUND,2023-12-14,16:21,17:11,16:49
5949,2023-12-14T17:10,'FORBES AVE + MURRAY AVE',7126,61D,OUTBOUND,2023-12-14,16:23,17:12,16:50
9456,2023-12-14T17:12,'FIFTH AVE + MOREWOOD AVE',1177,71D,OUTBOUND,2023-12-14,16:45,17:12,16:59
6041,2023-12-14T17:12,'FORBES + MURRAY FS',7096,61A,INBOUND,2023-12-14,16:35,17:12,17:12
10522,2023-12-14T17:12,'FIFTH  AVE + ATWOOD ST',36,P3,INBOUND,2023-12-14,16:42,17:13,17:05
10736,2023-12-14T17:12,'HIGHLAND AVE + PENN',3268,71B,OUTBOUND,2023-12-14,16:27,17:13,17:03
10935,2023-12-14T17:12,'FIFTH AVE + MOREWOOD AVE',1167,71D,INBOUND,2023-12-14,16:46,17:13,17:08
6544,2023-12-14T17:13,'FORBES AVE + MOREWOOD (CARNEGIE MELLON)',7117,61A,OUTBOUND,2023-12-14,16:19,17:13,16:37
6040,2023-12-14T17:13,'FIFTH  AVE + ATWOOD ST',36,61A,INBOUND,2023-12-14,16:20,17:14,17:10
6823,2023-12-14T17:14,'FORBES + MURRAY FS',7096,61D,INBOUND,2023-12-14,16:39,17:14,17:09
9070,2023-12-14T17:16,'FIFTH AVE + MOREWOOD AVE',1167,71B,INBOUND,2023-12-14,16:42,17:16,16:59
9072,2023-12-14T17:16,'HIGHLAND AVE + BAUM',19383,71B,INBOUND,2023-12-14,16:57,17:17,17:05
9458,2023-12-14T17:18,'FIFTH AVE + OAKLAND AVE',2565,71C,OUTBOUND,2023-12-14,16:57,17:18,17:03
7451,2023-12-14T17:18,'FORBES AVE + MOREWOOD AVE FS (CARNEGIE MELLON)',4407,61C,INBOUND,2023-12-14,16:22,17:18,17:06
6041,2023-12-14T17:18,'FORBES AVE + MOREWOOD AVE FS (CARNEGIE MELLON)',4407,61A,INBOUND,2023-12-14,16:35,17:18,17:17
9278,2023-12-14T17:09,'FIFTH AVE + MOREWOOD AVE',1177,58,OUTBOUND,2023-12-14,16:45,17:22,17:31
6553,2023-12-14T17:19,'FORBES AVE + MOREWOOD (CARNEGIE MELLON)',7117,61A,OUTBOUND,2023-12-14,17:01,17:19,17:19
6823,2023-12-14T17:19,'FORBES AVE + MOREWOOD AVE FS (CARNEGIE MELLON)',4407,61D,INBOUND,2023-12-14,16:39,17:19,17:15
7452,2023-12-14T17:18,'FORBES + MURRAY FS',7096,61C,INBOUND,2023-12-14,16:37,17:20,17:16
6042,2023-12-14T17:20,'FIFTH  AVE + ATWOOD ST',36,61B,INBOUND,2023-12-14,16:36,17:20,17:17
6544,2023-12-14T17:21,'FORBES AVE + MURRAY AVE',7126,61A,OUTBOUND,2023-12-14,16:19,17:21,16:44
7585,2023-12-14T17:21,'FIFTH AVE + OAKLAND AVE',2565,93,OUTBOUND,2023-12-14,16:30,17:21,17:06
9462,2023-12-14T17:21,'FIFTH  AVE + ATWOOD ST',36,71D,OUTBOUND,2023-12-14,17:15,17:21,12:27
9547,2023-12-14T17:21,'FIFTH AVE + OAKLAND AVE',2565,75,OUTBOUND,2023-12-14,17:07,17:21,17:17
9152,2023-12-14T17:22,'FORBES AVE + MOREWOOD (CARNEGIE MELLON)',7117,67,OUTBOUND,2023-12-14,16:40,17:22,16:56
10527,2023-12-14T17:22,'FIFTH  AVE + ATWOOD ST',36,P3,INBOUND,2023-12-14,16:57,17:23,17:20
10688,2023-12-14T17:23,'FIFTH AVE + OAKLAND AVE',2565,P3,OUTBOUND,2023-12-14,17:10,17:23,17:15
10738,2023-12-14T17:23,'FIFTH AVE + OAKLAND AVE',2565,71B,OUTBOUND,2023-12-14,16:57,17:24,17:14
9070,2023-12-14T17:23,'FIFTH  AVE + ATWOOD ST',36,71B,INBOUND,2023-12-14,16:42,17:25,17:06
6044,2023-12-14T17:23,'FORBES + MURRAY FS',7096,61B,INBOUND,2023-12-14,16:51,17:26,17:18
6041,2023-12-14T17:24,'FIFTH  AVE + ATWOOD ST',36,61A,INBOUND,2023-12-14,16:35,17:26,17:25
10740,2023-12-14T17:25,'FIFTH AVE + OAKLAND AVE',2565,71B,OUTBOUND,2023-12-14,17:23,17:25,17:39
7452,2023-12-14T17:25,'FORBES AVE + MOREWOOD AVE FS (CARNEGIE MELLON)',4407,61C,INBOUND,2023-12-14,16:37,17:25,17:21
6553,2023-12-14T17:25,'FORBES AVE + MURRAY AVE',7126,61A,OUTBOUND,2023-12-14,17:01,17:26,17:26
5953,2023-12-14T17:25,'FIFTH  AVE + ATWOOD ST',36,61D,OUTBOUND,2023-12-14,17:23,17:27,14:47
7451,2023-12-14T17:27,'FIFTH  AVE + ATWOOD ST',36,61C,INBOUND,2023-12-14,16:22,17:28,17:13
9074,2023-12-14T17:27,'HIGHLAND AVE + BAUM',19383,71B,INBOUND,2023-12-14,17:12,17:28,17:20
9072,2023-12-14T17:27,'FIFTH AVE + MOREWOOD AVE',1167,71B,INBOUND,2023-12-14,16:57,17:28,17:14
6825,2023-12-14T17:28,'FORBES + MURRAY FS',7096,61D,INBOUND,2023-12-14,16:54,17:28,17:24
9462,2023-12-14T17:28,'FIFTH AVE + OAKLAND AVE',2565,71D,OUTBOUND,2023-12-14,17:15,17:29,17:22
9649,2023-12-14T17:29,'FORBES AVE + MOREWOOD AVE FS (CARNEGIE MELLON)',4407,28X,OUTBOUND,2023-12-14,17:11,17:30,17:20
10689,2023-12-14T17:29,'FIFTH AVE + OAKLAND AVE',2565,P3,OUTBOUND,2023-12-14,17:25,17:30,17:30
6044,2023-12-14T17:29,'FORBES AVE + MOREWOOD AVE FS (CARNEGIE MELLON)',4407,61B,INBOUND,2023-12-14,16:51,17:30,17:23
2113,2023-12-14T17:30,'FIFTH  AVE + ATWOOD ST',36,54,OUTBOUND,2023-12-14,16:31,17:31,17:24
8874,2023-12-14T17:30,'FIFTH  AVE + ATWOOD ST',36,75,INBOUND,2023-12-14,16:35,17:33,17:23
7452,2023-12-14T17:30,'FIFTH  AVE + ATWOOD ST',36,61C,INBOUND,2023-12-14,16:37,17:32,17:28
5951,2023-12-14T17:32,'FORBES AVE + MOREWOOD (CARNEGIE MELLON)',7117,61D,OUTBOUND,2023-12-14,16:53,17:33,17:13
9277,2023-12-14T17:32,'FIFTH AVE + MOREWOOD AVE',1177,58,OUTBOUND,2023-12-14,16:10,17:33,16:56
7453,2023-12-14T17:32,'FORBES + MURRAY FS',7096,61C,INBOUND,2023-12-14,16:52,17:34,17:31
10738,2023-12-14T17:33,'FIFTH AVE + MOREWOOD AVE',1177,71B,OUTBOUND,2023-12-14,16:57,17:34,17:20
10533,2023-12-14T17:33,'FIFTH  AVE + ATWOOD ST',36,P3,INBOUND,2023-12-14,17:12,17:34,17:35
9072,2023-12-14T17:34,'FIFTH  AVE + ATWOOD ST',36,71B,INBOUND,2023-12-14,16:57,17:35,17:21
1916,2023-12-14T17:34,'FIFTH AVE + OAKLAND AVE',2565,54,INBOUND,2023-12-14,16:57,17:35,17:25
9232,2023-12-14T17:34,'FORBES AVE + MOREWOOD AVE FS (CARNEGIE MELLON)',4407,67,INBOUND,2023-12-14,16:18,17:36,17:28
6825,2023-12-14T17:35,'FORBES AVE + MOREWOOD AVE FS (CARNEGIE MELLON)',4407,61D,INBOUND,2023-12-14,16:54,17:36,17:30
9074,2023-12-14T17:35,'FIFTH AVE + MOREWOOD AVE',1167,71B,INBOUND,2023-12-14,17:12,17:37,17:29
9649,2023-12-14T17:36,'FIFTH  AVE + ATWOOD ST',36,28X,OUTBOUND,2023-12-14,17:11,17:37,17:24
6046,2023-12-14T17:36,'FORBES + MURRAY FS',7096,61B,INBOUND,2023-12-14,17:06,17:37,17:33
9548,2023-12-14T17:37,'FIFTH AVE + OAKLAND AVE',2565,75,OUTBOUND,2023-12-14,17:27,17:37,17:37
9462,2023-12-14T17:36,'FIFTH AVE + MOREWOOD AVE',1177,71D,OUTBOUND,2023-12-14,17:15,17:37,17:29
6044,2023-12-14T17:36,'FIFTH  AVE + ATWOOD ST',36,61B,INBOUND,2023-12-14,16:51,17:38,17:32
6550,2023-12-14T17:37,'FORBES AVE + MOREWOOD (CARNEGIE MELLON)',7117,61A,OUTBOUND,2023-12-14,16:48,17:38,17:06
7453,2023-12-14T17:37,'FORBES AVE + MOREWOOD AVE FS (CARNEGIE MELLON)',4407,61C,INBOUND,2023-12-14,16:52,17:38,17:36
6548,2023-12-14T17:37,'FORBES AVE + MOREWOOD (CARNEGIE MELLON)',7117,61C,OUTBOUND,2023-12-14,16:34,17:38,16:55
6552,2023-12-14T17:39,'FORBES AVE + MOREWOOD (CARNEGIE MELLON)',7117,61B,OUTBOUND,2023-12-14,16:53,17:39,17:15
5951,2023-12-14T17:38,'FORBES AVE + MURRAY AVE',7126,61D,OUTBOUND,2023-12-14,16:53,17:39,17:20
6551,2023-12-14T17:38,'FORBES AVE + MOREWOOD (CARNEGIE MELLON)',7117,61C,OUTBOUND,2023-12-14,16:49,17:39,17:10
6827,2023-12-14T17:39,'FORBES + MURRAY FS',7096,61D,INBOUND,2023-12-14,17:09,17:39,17:39
9076,2023-12-14T17:39,'HIGHLAND AVE + BAUM',19383,71B,INBOUND,2023-12-14,17:27,17:40,17:35
9463,2023-12-14T17:39,'FIFTH  AVE + ATWOOD ST',36,71A,OUTBOUND,2023-12-14,17:19,17:41,14:03
5952,2023-12-14T17:40,'FORBES AVE + MOREWOOD (CARNEGIE MELLON)',7117,61D,OUTBOUND,2023-12-14,17:08,17:41,17:28
9466,2023-12-14T17:40,'FIFTH  AVE + ATWOOD ST',36,71A,OUTBOUND,2023-12-14,17:34,17:41,23:23
6045,2023-12-14T17:41,'FORBES + MURRAY FS',7096,61A,INBOUND,2023-12-14,17:06,17:42,17:42
6046,2023-12-14T17:40,'FORBES AVE + MOREWOOD AVE FS (CARNEGIE MELLON)',4407,61B,INBOUND,2023-12-14,17:06,17:42,17:38
9463,2023-12-14T17:40,'FIFTH AVE + OAKLAND AVE',2565,71A,OUTBOUND,2023-12-14,17:19,17:47,17:26
9074,2023-12-14T17:41,'FIFTH  AVE + ATWOOD ST',36,71B,INBOUND,2023-12-14,17:12,17:43,17:36
10739,2023-12-14T17:43,'FIFTH AVE + OAKLAND AVE',2565,71B,OUTBOUND,2023-12-14,17:12,17:43,17:28
7587,2023-12-14T17:42,'FIFTH AVE + OAKLAND AVE',2565,93,OUTBOUND,2023-12-14,17:03,17:43,17:39
10690,2023-12-14T17:43,'FIFTH AVE + OAKLAND AVE',2565,P3,OUTBOUND,2023-12-14,17:40,17:44,17:45
9464,2023-12-14T17:39,'FIFTH  AVE + ATWOOD ST',36,71C,OUTBOUND,2023-12-14,17:27,17:44,10:56
6548,2023-12-14T17:43,'FORBES AVE + MURRAY AVE',7126,61C,OUTBOUND,2023-12-14,16:34,17:44,17:02
6827,2023-12-14T17:44,'FORBES AVE + MOREWOOD AVE FS (CARNEGIE MELLON)',4407,61D,INBOUND,2023-12-14,17:09,17:45,17:45
6550,2023-12-14T17:44,'FORBES AVE + MURRAY AVE',7126,61A,OUTBOUND,2023-12-14,16:48,17:45,17:13
9232,2023-12-14T17:44,'FIFTH  AVE + ATWOOD ST',36,67,INBOUND,2023-12-14,16:18,17:45,17:34
7453,2023-12-14T17:45,'FIFTH  AVE + ATWOOD ST',36,61C,INBOUND,2023-12-14,16:52,17:46,17:43
6552,2023-12-14T17:46,'FORBES AVE + MURRAY AVE',7126,61B,OUTBOUND,2023-12-14,16:53,17:46,17:22
5954,2023-12-14T17:46,'FIFTH  AVE + ATWOOD ST',36,61D,OUTBOUND,2023-12-14,17:38,17:46,04:27
6551,2023-12-14T17:45,'FORBES AVE + MURRAY AVE',7126,61C,OUTBOUND,2023-12-14,16:49,17:46,17:17
6045,2023-12-14T17:47,'FORBES AVE + MOREWOOD AVE FS (CARNEGIE MELLON)',4407,61A,INBOUND,2023-12-14,17:06,17:47,17:47
5952,2023-12-14T17:47,'FORBES AVE + MURRAY AVE',7126,61D,OUTBOUND,2023-12-14,17:08,17:47,17:35
8875,2023-12-14T17:48,'FIFTH  AVE + ATWOOD ST',36,75,INBOUND,2023-12-14,16:55,17:48,17:43
9469,2023-12-14T17:48,'FIFTH  AVE + ATWOOD ST',36,71A,OUTBOUND,2023-12-14,17:49,17:49,19:33
10941,2023-12-14T17:49,'FIFTH AVE + MOREWOOD AVE',1167,71D,INBOUND,2023-12-14,17:16,17:49,17:38
10738,2023-12-14T17:49,'HIGHLAND AVE + PENN',3268,71B,OUTBOUND,2023-12-14,16:57,17:49,17:33
6046,2023-12-14T17:49,'FIFTH  AVE + ATWOOD ST',36,61B,INBOUND,2023-12-14,17:06,17:50,17:47
9464,2023-12-14T17:39,'FIFTH AVE + OAKLAND AVE',2565,71C,OUTBOUND,2023-12-14,17:27,17:50,17:33
10739,2023-12-14T17:49,'FIFTH AVE + MOREWOOD AVE',1177,71B,OUTBOUND,2023-12-14,17:12,17:50,17:34
9466,2023-12-14T17:49,'FIFTH AVE + OAKLAND AVE',2565,71A,OUTBOUND,2023-12-14,17:34,17:50,17:41
10539,2023-12-14T17:50,'FIFTH  AVE + ATWOOD ST',36,P3,INBOUND,2023-12-14,17:27,17:51,17:50
6555,2023-12-14T17:51,'FORBES AVE + MOREWOOD (CARNEGIE MELLON)',7117,61B,OUTBOUND,2023-12-14,17:07,17:51,17:28
9079,2023-12-14T17:52,'HIGHLAND AVE + BAUM',19383,71B,INBOUND,2023-12-14,17:44,17:52,17:52
5953,2023-12-14T17:51,'FORBES AVE + MOREWOOD (CARNEGIE MELLON)',7117,61D,OUTBOUND,2023-12-14,17:23,17:52,17:43
9076,2023-12-14T17:52,'FIFTH AVE + MOREWOOD AVE',1167,71B,INBOUND,2023-12-14,17:27,17:53,17:44
5955,2023-12-14T17:51,'FIFTH  AVE + ATWOOD ST',36,61D,OUTBOUND,2023-12-14,17:53,17:53,07:30
6547,2023-12-14T17:52,'FORBES AVE + MOREWOOD (CARNEGIE MELLON)',7117,61A,OUTBOUND,2023-12-14,16:33,17:53,16:51
7454,2023-12-14T17:53,'FORBES + MURRAY FS',7096,61C,INBOUND,2023-12-14,17:07,17:54,17:46
6045,2023-12-14T17:54,'FIFTH  AVE + ATWOOD ST',36,61A,INBOUND,2023-12-14,17:06,17:55,17:55
9469,2023-12-14T17:55,'FIFTH AVE + OAKLAND AVE',2565,71A,OUTBOUND,2023-12-14,17:49,17:56,17:56
6549,2023-12-14T17:55,'FORBES AVE + MOREWOOD (CARNEGIE MELLON)',7117,61B,OUTBOUND,2023-12-14,16:38,17:56,17:00
1867,2023-12-14T17:56,'FIFTH AVE + OAKLAND AVE',2565,54,INBOUND,2023-12-14,17:27,17:56,17:50
10943,2023-12-14T17:56,'FIFTH AVE + MOREWOOD AVE',1167,71D,INBOUND,2023-12-14,17:31,17:56,17:53
9468,2023-12-14T17:57,'FIFTH  AVE + ATWOOD ST',36,71D,OUTBOUND,2023-12-14,17:45,17:58,13:12
10691,2023-12-14T17:58,'FIFTH AVE + OAKLAND AVE',2565,P3,OUTBOUND,2023-12-14,17:55,17:58,18:00
6555,2023-12-14T17:58,'FORBES AVE + MURRAY AVE',7126,61B,OUTBOUND,2023-12-14,17:07,17:58,17:34
9154,2023-12-14T17:57,'FORBES AVE + MOREWOOD (CARNEGIE MELLON)',7117,69,OUTBOUND,2023-12-14,17:20,17:58,17:38
6547,2023-12-14T17:58,'FORBES AVE + MURRAY AVE',7126,61A,OUTBOUND,2023-12-14,16:33,17:59,16:58
2114,2023-12-14T17:59,'FIFTH  AVE + ATWOOD ST',36,54,OUTBOUND,2023-12-14,17:06,17:59,17:57
7454,2023-12-14T17:59,'FORBES AVE + MOREWOOD AVE FS (CARNEGIE MELLON)',4407,61C,INBOUND,2023-12-14,17:07,17:59,17:51
5953,2023-12-14T17:59,'FORBES AVE + MURRAY AVE',7126,61D,OUTBOUND,2023-12-14,17:23,18:00,17:50
9153,2023-12-14T18:00,'FORBES AVE + MOREWOOD (CARNEGIE MELLON)',7117,67,OUTBOUND,2023-12-14,17:15,18:00,17:31
10739,2023-12-14T18:01,'HIGHLAND AVE + PENN',3268,71B,OUTBOUND,2023-12-14,17:12,18:01,17:45
9076,2023-12-14T18:01,'FIFTH  AVE + ATWOOD ST',36,71B,INBOUND,2023-12-14,17:27,18:02,17:51
9470,2023-12-14T18:01,'FIFTH  AVE + ATWOOD ST',36,71C,OUTBOUND,2023-12-14,17:57,18:02,11:07
6549,2023-12-14T18:02,'FORBES AVE + MURRAY AVE',7126,61B,OUTBOUND,2023-12-14,16:38,18:03,17:07
9651,2023-12-14T18:02,'FORBES AVE + MOREWOOD AVE FS (CARNEGIE MELLON)',4407,28X,OUTBOUND,2023-12-14,17:49,18:03,17:58
9472,2023-12-14T18:02,'FIFTH  AVE + ATWOOD ST',36,71A,OUTBOUND,2023-12-14,18:04,18:04,09:19
6047,2023-12-14T18:03,'FORBES + MURRAY FS',7096,61A,INBOUND,2023-12-14,17:21,18:03,17:57
9471,2023-12-14T18:03,'FIFTH  AVE + ATWOOD ST',36,71D,OUTBOUND,2023-12-14,18:00,18:03,22:43
9549,2023-12-14T18:03,'FIFTH AVE + OAKLAND AVE',2565,75,OUTBOUND,2023-12-14,17:47,18:03,17:57
9235,2023-12-14T18:02,'FORBES AVE + MOREWOOD AVE FS (CARNEGIE MELLON)',4407,67,INBOUND,2023-12-14,16:55,18:04,18:05
9468,2023-12-14T18:04,'FIFTH AVE + OAKLAND AVE',2565,71D,OUTBOUND,2023-12-14,17:45,18:04,17:52
10740,2023-12-14T18:03,'FIFTH AVE + MOREWOOD AVE',1177,71B,OUTBOUND,2023-12-14,17:23,18:04,17:45
9079,2023-12-14T18:03,'FIFTH AVE + MOREWOOD AVE',1167,71B,INBOUND,2023-12-14,17:44,18:04,18:00
11658,2023-12-14T18:03,'FORBES AVE + MOREWOOD AVE FS (CARNEGIE MELLON)',4407,69,INBOUND,2023-12-14,16:45,18:04,17:56
6049,2023-12-14T18:05,'FORBES + MURRAY FS',7096,61B,INBOUND,2023-12-14,17:39,18:05,18:06
6554,2023-12-14T18:05,'FORBES AVE + MOREWOOD (CARNEGIE MELLON)',7117,61C,OUTBOUND,2023-12-14,17:02,18:05,17:20
6558,2023-12-14T18:05,'FORBES AVE + MOREWOOD (CARNEGIE MELLON)',7117,61B,OUTBOUND,2023-12-14,17:22,18:05,17:43
6557,2023-12-14T18:05,'FORBES AVE + MOREWOOD (CARNEGIE MELLON)',7117,61C,OUTBOUND,2023-12-14,17:17,18:06,17:35
6829,2023-12-14T18:05,'FORBES + MURRAY FS',7096,61D,INBOUND,2023-12-14,17:27,18:06,17:55
11214,2023-12-14T18:06,'FORBES AVE + MOREWOOD AVE FS (CARNEGIE MELLON)',4407,58,INBOUND,2023-12-14,18:07,18:07,22:44
7455,2023-12-14T18:07,'FORBES + MURRAY FS',7096,61C,INBOUND,2023-12-14,17:28,18:07,18:03
6559,2023-12-14T18:07,'FORBES AVE + MOREWOOD (CARNEGIE MELLON)',7117,61A,OUTBOUND,2023-12-14,17:31,18:07,17:49
6047,2023-12-14T18:07,'FORBES AVE + MOREWOOD AVE FS (CARNEGIE MELLON)',4407,61A,INBOUND,2023-12-14,17:21,18:08,18:02
7454,2023-12-14T18:07,'FIFTH  AVE + ATWOOD ST',36,61C,INBOUND,2023-12-14,17:07,18:08,17:58
6562,2023-12-14T18:07,'FORBES AVE + MOREWOOD (CARNEGIE MELLON)',7117,61A,OUTBOUND,2023-12-14,17:46,18:08,18:04
6561,2023-12-14T18:07,'FORBES AVE + MOREWOOD (CARNEGIE MELLON)',7117,61B,OUTBOUND,2023-12-14,17:35,18:08,17:56
5954,2023-12-14T18:07,'FORBES AVE + MOREWOOD (CARNEGIE MELLON)',7117,61D,OUTBOUND,2023-12-14,17:38,18:08,17:58
9472,2023-12-14T18:08,'FIFTH AVE + OAKLAND AVE',2565,71A,OUTBOUND,2023-12-14,18:04,18:08,18:10
10946,2023-12-14T18:07,'FIFTH AVE + MOREWOOD AVE',1167,71D,INBOUND,2023-12-14,17:48,18:10,18:10
9082,2023-12-14T18:09,'HIGHLAND AVE + BAUM',19383,71B,INBOUND,2023-12-14,18:03,18:09,18:11
9651,2023-12-14T18:08,'FIFTH  AVE + ATWOOD ST',36,28X,OUTBOUND,2023-12-14,17:49,18:09,18:02
9471,2023-12-14T18:09,'FIFTH AVE + OAKLAND AVE',2565,71D,OUTBOUND,2023-12-14,18:00,18:09,18:06
9470,2023-12-14T18:09,'FIFTH AVE + OAKLAND AVE',2565,71C,OUTBOUND,2023-12-14,17:57,18:09,18:03
9079,2023-12-14T18:10,'FIFTH  AVE + ATWOOD ST',36,71B,INBOUND,2023-12-14,17:44,18:10,18:06
9468,2023-12-14T18:11,'FIFTH AVE + MOREWOOD AVE',1177,71D,OUTBOUND,2023-12-14,17:45,18:11,17:59
6554,2023-12-14T18:10,'FORBES AVE + MURRAY AVE',7126,61C,OUTBOUND,2023-12-14,17:02,18:11,17:27
6558,2023-12-14T18:10,'FORBES AVE + MURRAY AVE',7126,61B,OUTBOUND,2023-12-14,17:22,18:11,17:49
11658,2023-12-14T18:12,'FIFTH  AVE + ATWOOD ST',36,69,INBOUND,2023-12-14,16:45,18:12,18:01
6557,2023-12-14T18:11,'FORBES AVE + MURRAY AVE',7126,61C,OUTBOUND,2023-12-14,17:17,18:12,17:42
9235,2023-12-14T18:12,'FIFTH  AVE + ATWOOD ST',36,67,INBOUND,2023-12-14,16:55,18:12,18:11
6049,2023-12-14T18:13,'FORBES AVE + MOREWOOD AVE FS (CARNEGIE MELLON)',4407,61B,INBOUND,2023-12-14,17:39,18:13,18:11
6560,2023-12-14T18:13,'FORBES AVE + MOREWOOD (CARNEGIE MELLON)',7117,61C,OUTBOUND,2023-12-14,17:32,18:13,17:50
7455,2023-12-14T18:12,'FORBES AVE + MOREWOOD AVE FS (CARNEGIE MELLON)',4407,61C,INBOUND,2023-12-14,17:28,18:13,18:08
6829,2023-12-14T18:13,'FORBES AVE + MOREWOOD AVE FS (CARNEGIE MELLON)',4407,61D,INBOUND,2023-12-14,17:27,18:13,18:01
6559,2023-12-14T18:12,'FORBES AVE + MURRAY AVE',7126,61A,OUTBOUND,2023-12-14,17:31,18:13,17:56
8876,2023-12-14T18:12,'FIFTH  AVE + ATWOOD ST',36,75,INBOUND,2023-12-14,17:15,18:14,18:03
9474,2023-12-14T18:12,'FIFTH  AVE + ATWOOD ST',36,71D,OUTBOUND,2023-12-14,18:17,18:17,06:28
5954,2023-12-14T18:14,'FORBES AVE + MURRAY AVE',7126,61D,OUTBOUND,2023-12-14,17:38,18:14,18:05
5955,2023-12-14T18:14,'FORBES AVE + MOREWOOD (CARNEGIE MELLON)',7117,61D,OUTBOUND,2023-12-14,17:53,18:14,18:13
6562,2023-12-14T18:15,'FORBES AVE + MURRAY AVE',7126,61A,OUTBOUND,2023-12-14,17:46,18:15,18:11
6561,2023-12-14T18:15,'FORBES AVE + MURRAY AVE',7126,61B,OUTBOUND,2023-12-14,17:35,18:15,18:02
9473,2023-12-14T18:16,'FIFTH  AVE + ATWOOD ST',36,71C,OUTBOUND,2023-12-14,18:12,18:16,13:47
9471,2023-12-14T18:16,'FIFTH AVE + MOREWOOD AVE',1177,71D,OUTBOUND,2023-12-14,18:00,18:16,18:12
6563,2023-12-14T18:16,'FORBES AVE + MOREWOOD (CARNEGIE MELLON)',7117,61C,OUTBOUND,2023-12-14,17:47,18:16,18:05
6831,2023-12-14T18:16,'FORBES + MURRAY FS',7096,61D,INBOUND,2023-12-14,17:46,18:16,18:14
6047,2023-12-14T18:16,'FIFTH  AVE + ATWOOD ST',36,61A,INBOUND,2023-12-14,17:21,18:17,18:10
10740,2023-12-14T18:17,'HIGHLAND AVE + PENN',3268,71B,OUTBOUND,2023-12-14,17:23,18:17,17:58
10741,2023-12-14T18:08,'FIFTH AVE + OAKLAND AVE',2565,71B,OUTBOUND,2023-12-14,17:38,18:20,17:54
10741,2023-12-14T18:08,'FIFTH AVE + MOREWOOD AVE',1177,71B,OUTBOUND,2023-12-14,17:38,18:26,18:00
6564,2023-12-14T18:18,'FORBES AVE + MOREWOOD (CARNEGIE MELLON)',7117,61B,OUTBOUND,2023-12-14,17:50,18:18,18:11
6560,2023-12-14T18:18,'FORBES AVE + MURRAY AVE',7126,61C,OUTBOUND,2023-12-14,17:32,18:19,17:57
5955,2023-12-14T18:20,'FORBES AVE + MURRAY AVE',7126,61D,OUTBOUND,2023-12-14,17:53,18:20,18:20
9082,2023-12-14T18:20,'FIFTH AVE + MOREWOOD AVE',1167,71B,INBOUND,2023-12-14,18:03,18:21,18:19
9474,2023-12-14T18:20,'FIFTH AVE + OAKLAND AVE',2565,71D,OUTBOUND,2023-12-14,18:17,18:21,18:23
6050,2023-12-14T18:21,'FORBES + MURRAY FS',7096,61A,INBOUND,2023-12-14,17:41,18:21,18:17
9155,2023-12-14T18:21,'FORBES AVE + MOREWOOD (CARNEGIE MELLON)',7117,67,OUTBOUND,2023-12-14,17:50,18:21,18:05
1918,2023-12-14T18:21,'FIFTH AVE + OAKLAND AVE',2565,54,INBOUND,2023-12-14,17:47,18:21,18:13
6563,2023-12-14T18:21,'FORBES AVE + MURRAY AVE',7126,61C,OUTBOUND,2023-12-14,17:47,18:21,18:12
6049,2023-12-14T18:21,'FIFTH  AVE + ATWOOD ST',36,61B,INBOUND,2023-12-14,17:39,18:22,18:20
5956,2023-12-14T18:20,'FIFTH  AVE + ATWOOD ST',36,61D,OUTBOUND,2023-12-14,18:08,18:22,20:56
9473,2023-12-14T18:22,'FIFTH AVE + OAKLAND AVE',2565,71C,OUTBOUND,2023-12-14,18:12,18:22,18:18
7455,2023-12-14T18:22,'FIFTH  AVE + ATWOOD ST',36,61C,INBOUND,2023-12-14,17:28,18:23,18:15
9475,2023-12-14T18:22,'FIFTH  AVE + ATWOOD ST',36,71A,OUTBOUND,2023-12-14,18:22,18:24,17:10
10742,2023-12-14T18:23,'FIFTH AVE + OAKLAND AVE',2565,71B,OUTBOUND,2023-12-14,17:53,18:23,18:09
9550,2023-12-14T18:23,'FIFTH AVE + OAKLAND AVE',2565,75,OUTBOUND,2023-12-14,18:07,18:23,18:17
6564,2023-12-14T18:24,'FORBES AVE + MURRAY AVE',7126,61B,OUTBOUND,2023-12-14,17:50,18:24,18:17
6831,2023-12-14T18:24,'FORBES AVE + MOREWOOD AVE FS (CARNEGIE MELLON)',4407,61D,INBOUND,2023-12-14,17:46,18:24,18:20
10551,2023-12-14T18:24,'FIFTH  AVE + ATWOOD ST',36,P3,INBOUND,2023-12-14,17:57,18:25,18:20
6050,2023-12-14T18:27,'FORBES AVE + MOREWOOD AVE FS (CARNEGIE MELLON)',4407,61A,INBOUND,2023-12-14,17:41,18:27,18:22
2116,2023-12-14T18:27,'FIFTH  AVE + ATWOOD ST',36,54,OUTBOUND,2023-12-14,17:41,18:27,18:20
9475,2023-12-14T18:28,'FIFTH AVE + OAKLAND AVE',2565,71A,OUTBOUND,2023-12-14,18:22,18:28,18:28
9082,2023-12-14T18:29,'FIFTH  AVE + ATWOOD ST',36,71B,INBOUND,2023-12-14,18:03,18:29,18:25
6568,2023-12-14T18:30,'FORBES AVE + MOREWOOD (CARNEGIE MELLON)',7117,61A,OUTBOUND,2023-12-14,18:13,18:30,18:30
9474,2023-12-14T18:30,'FIFTH AVE + MOREWOOD AVE',1177,71D,OUTBOUND,2023-12-14,18:17,18:31,18:29
8878,2023-12-14T18:30,'FIFTH  AVE + ATWOOD ST',36,75,INBOUND,2023-12-14,17:35,18:31,18:23
10693,2023-12-14T18:31,'FIFTH AVE + OAKLAND AVE',2565,P3,OUTBOUND,2023-12-14,18:25,18:31,18:30
10742,2023-12-14T18:31,'FIFTH AVE + MOREWOOD AVE',1177,71B,OUTBOUND,2023-12-14,17:53,18:31,18:15
6567,2023-12-14T18:32,'FORBES AVE + MOREWOOD (CARNEGIE MELLON)',7117,61C,OUTBOUND,2023-12-14,18:02,18:32,18:19
5956,2023-12-14T18:32,'FORBES AVE + MOREWOOD (CARNEGIE MELLON)',7117,61D,OUTBOUND,2023-12-14,18:08,18:32,18:26
6833,2023-12-14T18:32,'FORBES + MURRAY FS',7096,61D,INBOUND,2023-12-14,18:06,18:33,18:34
10949,2023-12-14T18:33,'FIFTH AVE + MOREWOOD AVE',1167,71D,INBOUND,2023-12-14,18:09,18:33,18:30
5957,2023-12-14T18:33,'FIFTH  AVE + ATWOOD ST',36,61D,OUTBOUND,2023-12-14,18:27,18:34,17:17
7456,2023-12-14T18:34,'FORBES + MURRAY FS',7096,61C,INBOUND,2023-12-14,17:48,18:34,18:23
6050,2023-12-14T18:34,'FIFTH  AVE + ATWOOD ST',36,61A,INBOUND,2023-12-14,17:41,18:34,18:30
6568,2023-12-14T18:36,'FORBES AVE + MURRAY AVE',7126,61A,OUTBOUND,2023-12-14,18:13,18:37,18:37
6567,2023-12-14T18:37,'FORBES AVE + MURRAY AVE',7126,61C,OUTBOUND,2023-12-14,18:02,18:37,18:26
9476,2023-12-14T18:36,'FIFTH  AVE + ATWOOD ST',36,71C,OUTBOUND,2023-12-14,18:32,18:39,22:21
5956,2023-12-14T18:38,'FORBES AVE + MURRAY AVE',7126,61D,OUTBOUND,2023-12-14,18:08,18:39,18:33
9477,2023-12-14T18:38,'FIFTH  AVE + ATWOOD ST',36,71D,OUTBOUND,2023-12-14,18:37,18:39,22:30
7456,2023-12-14T18:39,'FORBES AVE + MOREWOOD AVE FS (CARNEGIE MELLON)',4407,61C,INBOUND,2023-12-14,17:48,18:39,18:28
6052,2023-12-14T18:39,'FORBES + MURRAY FS',7096,61A,INBOUND,2023-12-14,18:02,18:39,18:38
6833,2023-12-14T18:39,'FORBES AVE + MOREWOOD AVE FS (CARNEGIE MELLON)',4407,61D,INBOUND,2023-12-14,18:06,18:39,18:40
10559,2023-12-14T18:39,'FIFTH  AVE + ATWOOD ST',36,P3,INBOUND,2023-12-14,18:17,18:40,18:40
10743,2023-12-14T18:41,'FIFTH AVE + OAKLAND AVE',2565,71B,OUTBOUND,2023-12-14,18:08,18:41,18:22
6566,2023-12-14T18:41,'FORBES AVE + MOREWOOD (CARNEGIE MELLON)',7117,61B,OUTBOUND,2023-12-14,18:01,18:41,18:21
9238,2023-12-14T18:41,'FORBES AVE + MOREWOOD AVE FS (CARNEGIE MELLON)',4407,67,INBOUND,2023-12-14,17:37,18:41,18:41
10742,2023-12-14T18:41,'HIGHLAND AVE + PENN',3268,71B,OUTBOUND,2023-12-14,17:53,18:42,18:28
9551,2023-12-14T18:42,'FIFTH AVE + OAKLAND AVE',2565,75,OUTBOUND,2023-12-14,18:27,18:42,18:37
9085,2023-12-14T18:43,'HIGHLAND AVE + BAUM',19383,71B,INBOUND,2023-12-14,18:23,18:43,18:31
6052,2023-12-14T18:44,'FORBES AVE + MOREWOOD AVE FS (CARNEGIE MELLON)',4407,61A,INBOUND,2023-12-14,18:02,18:44,18:42
9476,2023-12-14T18:45,'FIFTH AVE + OAKLAND AVE',2565,71C,OUTBOUND,2023-12-14,18:32,18:45,18:38
9477,2023-12-14T18:45,'FIFTH AVE + OAKLAND AVE',2565,71D,OUTBOUND,2023-12-14,18:37,18:45,18:43
7456,2023-12-14T18:45,'FIFTH  AVE + ATWOOD ST',36,61C,INBOUND,2023-12-14,17:48,18:46,18:35
5958,2023-12-14T18:45,'FIFTH  AVE + ATWOOD ST',36,61D,OUTBOUND,2023-12-14,18:47,18:47,09:40
10744,2023-12-14T18:46,'FIFTH AVE + OAKLAND AVE',2565,71B,OUTBOUND,2023-12-14,18:21,18:46,18:35
9238,2023-12-14T18:46,'FIFTH  AVE + ATWOOD ST',36,67,INBOUND,2023-12-14,17:37,18:46,18:46
5957,2023-12-14T18:46,'FORBES AVE + MOREWOOD (CARNEGIE MELLON)',7117,61D,OUTBOUND,2023-12-14,18:27,18:47,18:45
6566,2023-12-14T18:47,'FORBES AVE + MURRAY AVE',7126,61B,OUTBOUND,2023-12-14,18:01,18:47,18:27
10743,2023-12-14T18:48,'FIFTH AVE + MOREWOOD AVE',1177,71B,OUTBOUND,2023-12-14,18:08,18:48,18:28
10694,2023-12-14T18:48,'FIFTH AVE + OAKLAND AVE',2565,P3,OUTBOUND,2023-12-14,18:45,18:48,18:50
2118,2023-12-14T18:49,'FIFTH  AVE + ATWOOD ST',36,54,OUTBOUND,2023-12-14,18:05,18:49,18:46
9478,2023-12-14T18:49,'FIFTH  AVE + ATWOOD ST',36,71A,OUTBOUND,2023-12-14,18:42,18:49,17:32
1869,2023-12-14T18:50,'FIFTH AVE + OAKLAND AVE',2565,54,INBOUND,2023-12-14,18:17,18:50,18:38
9279,2023-12-14T18:50,'FIFTH AVE + MOREWOOD AVE',1177,58,OUTBOUND,2023-12-14,17:45,18:51,18:29
9477,2023-12-14T18:50,'FIFTH AVE + MOREWOOD AVE',1177,71D,OUTBOUND,2023-12-14,18:37,18:51,18:49
9653,2023-12-14T18:50,'FORBES AVE + MOREWOOD AVE FS (CARNEGIE MELLON)',4407,28X,OUTBOUND,2023-12-14,18:40,18:51,18:49
6052,2023-12-14T18:51,'FIFTH  AVE + ATWOOD ST',36,61A,INBOUND,2023-12-14,18:02,18:52,18:50
5957,2023-12-14T18:51,'FORBES AVE + MURRAY AVE',7126,61D,OUTBOUND,2023-12-14,18:27,18:52,18:52
9085,2023-12-14T18:50,'FIFTH AVE + MOREWOOD AVE',1167,71B,INBOUND,2023-12-14,18:23,18:53,18:39
10744,2023-12-14T18:53,'FIFTH AVE + MOREWOOD AVE',1177,71B,OUTBOUND,2023-12-14,18:21,18:53,18:41
9479,2023-12-14T18:53,'FIFTH  AVE + ATWOOD ST',36,71C,OUTBOUND,2023-12-14,18:52,18:54,17:03
7457,2023-12-14T18:55,'FORBES + MURRAY FS',7096,61C,INBOUND,2023-12-14,18:08,18:55,18:43
9156,2023-12-14T18:55,'FORBES AVE + MOREWOOD (CARNEGIE MELLON)',7117,69,OUTBOUND,2023-12-14,18:20,18:56,18:35
6835,2023-12-14T18:56,'FORBES + MURRAY FS',7096,61D,INBOUND,2023-12-14,18:30,18:56,18:55
9478,2023-12-14T18:56,'FIFTH AVE + OAKLAND AVE',2565,71A,OUTBOUND,2023-12-14,18:42,18:56,18:48
9157,2023-12-14T18:56,'FORBES AVE + MOREWOOD (CARNEGIE MELLON)',7117,67,OUTBOUND,2023-12-14,18:25,18:56,18:39
9653,2023-12-14T18:56,'FIFTH  AVE + ATWOOD ST',36,28X,OUTBOUND,2023-12-14,18:40,18:56,18:53
6054,2023-12-14T18:56,'FORBES + MURRAY FS',7096,61A,INBOUND,2023-12-14,18:22,18:58,18:58
9085,2023-12-14T18:50,'FIFTH  AVE + ATWOOD ST',36,71B,INBOUND,2023-12-14,18:23,18:58,18:45
9479,2023-12-14T18:58,'FIFTH AVE + OAKLAND AVE',2565,71C,OUTBOUND,2023-12-14,18:52,18:58,18:58
10743,2023-12-14T18:59,'HIGHLAND AVE + PENN',3268,71B,OUTBOUND,2023-12-14,18:08,18:59,18:39
9552,2023-12-14T18:59,'FIFTH AVE + OAKLAND AVE',2565,75,OUTBOUND,2023-12-14,18:47,19:00,18:57
10744,2023-12-14T19:00,'HIGHLAND AVE + PENN',3268,71B,OUTBOUND,2023-12-14,18:21,19:01,18:52
7457,2023-12-14T19:01,'FORBES AVE + MOREWOOD AVE FS (CARNEGIE MELLON)',4407,61C,INBOUND,2023-12-14,18:08,19:01,18:48
9481,2023-12-14T19:01,'FIFTH  AVE + ATWOOD ST',36,71A,OUTBOUND,2023-12-14,19:02,19:02,12:17
10567,2023-12-14T19:01,'FIFTH  AVE + ATWOOD ST',36,P3,INBOUND,2023-12-14,18:40,19:02,19:02
5958,2023-12-14T19:01,'FORBES AVE + MOREWOOD (CARNEGIE MELLON)',7117,61D,OUTBOUND,2023-12-14,18:47,19:02,19:02
6054,2023-12-14T19:02,'FORBES AVE + MOREWOOD AVE FS (CARNEGIE MELLON)',4407,61A,INBOUND,2023-12-14,18:22,19:02,19:02
6835,2023-12-14T19:02,'FORBES AVE + MOREWOOD AVE FS (CARNEGIE MELLON)',4407,61D,INBOUND,2023-12-14,18:30,19:02,19:00
6570,2023-12-14T19:05,'FORBES AVE + MOREWOOD (CARNEGIE MELLON)',7117,61C,OUTBOUND,2023-12-14,18:17,19:06,18:34
6571,2023-12-14T19:05,'FORBES AVE + MOREWOOD (CARNEGIE MELLON)',7117,61A,OUTBOUND,2023-12-14,18:28,19:07,18:45
5958,2023-12-14T19:07,'FORBES AVE + MURRAY AVE',7126,61D,OUTBOUND,2023-12-14,18:47,19:07,19:08
9481,2023-12-14T19:07,'FIFTH AVE + OAKLAND AVE',2565,71A,OUTBOUND,2023-12-14,19:02,19:08,19:08
10695,2023-12-14T19:08,'FIFTH AVE + OAKLAND AVE',2565,P3,OUTBOUND,2023-12-14,19:05,19:08,19:10
11216,2023-12-14T19:08,'FORBES AVE + MOREWOOD AVE FS (CARNEGIE MELLON)',4407,58,INBOUND,2023-12-14,19:07,19:09,07:37
7457,2023-12-14T19:09,'FIFTH  AVE + ATWOOD ST',36,61C,INBOUND,2023-12-14,18:08,19:09,18:55
5959,2023-12-14T19:09,'FIFTH  AVE + ATWOOD ST',36,61D,OUTBOUND,2023-12-14,19:07,19:09,15:12
6054,2023-12-14T19:07,'FIFTH  AVE + ATWOOD ST',36,61A,INBOUND,2023-12-14,18:22,19:10,19:10
6571,2023-12-14T19:09,'FORBES AVE + MURRAY AVE',7126,61A,OUTBOUND,2023-12-14,18:28,19:10,18:52
6051,2023-12-14T19:09,'FORBES + MURRAY FS',7096,61B,INBOUND,2023-12-14,17:59,19:36,18:26
1920,2023-12-14T19:10,'FIFTH AVE + OAKLAND AVE',2565,54,INBOUND,2023-12-14,18:37,19:10,19:02
10745,2023-12-14T19:10,'FIFTH AVE + OAKLAND AVE',2565,71B,OUTBOUND,2023-12-14,18:40,19:11,18:54
8880,2023-12-14T19:10,'FIFTH  AVE + ATWOOD ST',36,75,INBOUND,2023-12-14,18:24,19:11,19:04
6570,2023-12-14T19:11,'FORBES AVE + MURRAY AVE',7126,61C,OUTBOUND,2023-12-14,18:17,19:12,18:41
10956,2023-12-14T19:12,'FIFTH AVE + MOREWOOD AVE',1167,71D,INBOUND,2023-12-14,18:52,19:14,19:13
6572,2023-12-14T19:16,'FORBES AVE + MOREWOOD (CARNEGIE MELLON)',7117,61C,OUTBOUND,2023-12-14,18:31,19:17,18:48
2120,2023-12-14T19:16,'FIFTH  AVE + ATWOOD ST',36,54,OUTBOUND,2023-12-14,18:30,19:17,19:09
6573,2023-12-14T19:17,'FORBES AVE + MOREWOOD (CARNEGIE MELLON)',7117,61B,OUTBOUND,2023-12-14,18:34,19:18,18:50
6053,2023-12-14T19:12,'FORBES + MURRAY FS',7096,61B,INBOUND,2023-12-14,18:21,19:18,18:46
6574,2023-12-14T19:18,'FORBES AVE + MOREWOOD (CARNEGIE MELLON)',7117,61A,OUTBOUND,2023-12-14,18:48,19:18,19:05
9158,2023-12-14T19:18,'FORBES AVE + MOREWOOD (CARNEGIE MELLON)',7117,67,OUTBOUND,2023-12-14,19:00,19:18,19:12
6055,2023-12-14T19:18,'FORBES + MURRAY FS',7096,61B,INBOUND,2023-12-14,18:45,19:19,19:10
9090,2023-12-14T19:18,'HIGHLAND AVE + BAUM',19383,71B,INBOUND,2023-12-14,19:11,19:19,19:18
9483,2023-12-14T19:18,'FIFTH  AVE + ATWOOD ST',36,71D,OUTBOUND,2023-12-14,19:20,19:20,18:25
10745,2023-12-14T19:19,'FIFTH AVE + MOREWOOD AVE',1177,71B,OUTBOUND,2023-12-14,18:40,19:20,19:00
7590,2023-12-14T19:19,'FIFTH AVE + OAKLAND AVE',2565,93,OUTBOUND,2023-12-14,18:38,19:20,19:12
10746,2023-12-14T19:21,'FIFTH AVE + OAKLAND AVE',2565,71B,OUTBOUND,2023-12-14,19:00,19:21,19:13
5959,2023-12-14T19:21,'FORBES AVE + MOREWOOD (CARNEGIE MELLON)',7117,61D,OUTBOUND,2023-12-14,19:07,19:22,19:21
6053,2023-12-14T19:12,'FORBES AVE + MOREWOOD AVE FS (CARNEGIE MELLON)',4407,61B,INBOUND,2023-12-14,18:21,19:24,18:51
6053,2023-12-14T19:12,'FIFTH  AVE + ATWOOD ST',36,61B,INBOUND,2023-12-14,18:21,19:32,19:00
6572,2023-12-14T19:22,'FORBES AVE + MURRAY AVE',7126,61C,OUTBOUND,2023-12-14,18:31,19:22,18:55
6573,2023-12-14T19:23,'FORBES AVE + MURRAY AVE',7126,61B,OUTBOUND,2023-12-14,18:34,19:23,18:56
6838,2023-12-14T19:23,'FORBES + MURRAY FS',7096,61D,INBOUND,2023-12-14,18:59,19:23,19:24
6574,2023-12-14T19:23,'FORBES AVE + MURRAY AVE',7126,61A,OUTBOUND,2023-12-14,18:48,19:24,19:12
6575,2023-12-14T19:24,'FORBES AVE + MOREWOOD (CARNEGIE MELLON)',7117,61C,OUTBOUND,2023-12-14,18:51,19:24,19:08
9483,2023-12-14T19:24,'FIFTH AVE + OAKLAND AVE',2565,71D,OUTBOUND,2023-12-14,19:20,19:25,19:26
6055,2023-12-14T19:26,'FORBES AVE + MOREWOOD AVE FS (CARNEGIE MELLON)',4407,61B,INBOUND,2023-12-14,18:45,19:26,19:15
5959,2023-12-14T19:26,'FORBES AVE + MURRAY AVE',7126,61D,OUTBOUND,2023-12-14,19:07,19:26,19:27
6577,2023-12-14T19:27,'FORBES AVE + MOREWOOD (CARNEGIE MELLON)',7117,61A,OUTBOUND,2023-12-14,19:06,19:27,19:22
10746,2023-12-14T19:27,'FIFTH AVE + MOREWOOD AVE',1177,71B,OUTBOUND,2023-12-14,19:00,19:28,19:19
6575,2023-12-14T19:28,'FORBES AVE + MURRAY AVE',7126,61C,OUTBOUND,2023-12-14,18:51,19:28,19:15
6056,2023-12-14T19:28,'FORBES + MURRAY FS',7096,61A,INBOUND,2023-12-14,18:52,19:28,19:28
9090,2023-12-14T19:28,'FIFTH AVE + MOREWOOD AVE',1167,71B,INBOUND,2023-12-14,19:11,19:29,19:26
6576,2023-12-14T19:29,'FORBES AVE + MOREWOOD (CARNEGIE MELLON)',7117,61B,OUTBOUND,2023-12-14,18:54,19:29,19:10
1871,2023-12-14T19:29,'FIFTH AVE + OAKLAND AVE',2565,54,INBOUND,2023-12-14,19:07,19:29,19:28
6838,2023-12-14T19:29,'FORBES AVE + MOREWOOD AVE FS (CARNEGIE MELLON)',4407,61D,INBOUND,2023-12-14,18:59,19:29,19:29
9656,2023-12-14T19:30,'FORBES AVE + MOREWOOD AVE FS (CARNEGIE MELLON)',4407,28X,OUTBOUND,2023-12-14,19:15,19:30,19:23
9484,2023-12-14T19:30,'FIFTH  AVE + ATWOOD ST',36,71A,OUTBOUND,2023-12-14,19:28,19:30,07:58
7458,2023-12-14T19:28,'FORBES + MURRAY FS',7096,61C,INBOUND,2023-12-14,18:30,19:31,19:05
6577,2023-12-14T19:31,'FORBES AVE + MURRAY AVE',7126,61A,OUTBOUND,2023-12-14,19:06,19:31,19:28
10745,2023-12-14T19:31,'HIGHLAND AVE + PENN',3268,71B,OUTBOUND,2023-12-14,18:40,19:31,19:11
9484,2023-12-14T19:31,'FIFTH AVE + OAKLAND AVE',2565,71A,OUTBOUND,2023-12-14,19:28,19:31,19:34
9483,2023-12-14T19:32,'FIFTH AVE + MOREWOOD AVE',1177,71D,OUTBOUND,2023-12-14,19:20,19:32,19:32
6056,2023-12-14T19:32,'FORBES AVE + MOREWOOD AVE FS (CARNEGIE MELLON)',4407,61A,INBOUND,2023-12-14,18:52,19:33,19:32
7459,2023-12-14T19:33,'FORBES + MURRAY FS',7096,61C,INBOUND,2023-12-14,18:58,19:33,19:33
6576,2023-12-14T19:33,'FORBES AVE + MURRAY AVE',7126,61B,OUTBOUND,2023-12-14,18:54,19:34,19:16
2121,2023-12-14T19:33,'FIFTH  AVE + ATWOOD ST',36,54,OUTBOUND,2023-12-14,18:55,19:34,19:36
6055,2023-12-14T19:34,'FIFTH  AVE + ATWOOD ST',36,61B,INBOUND,2023-12-14,18:45,19:35,19:24
9280,2023-12-14T19:34,'FIFTH AVE + MOREWOOD AVE',1177,58,OUTBOUND,2023-12-14,18:45,19:35,19:23
9090,2023-12-14T19:35,'FIFTH  AVE + ATWOOD ST',36,71B,INBOUND,2023-12-14,19:11,19:36,19:32
7458,2023-12-14T19:28,'FORBES AVE + MOREWOOD AVE FS (CARNEGIE MELLON)',4407,61C,INBOUND,2023-12-14,18:30,19:36,19:10
9656,2023-12-14T19:36,'FIFTH  AVE + ATWOOD ST',36,28X,OUTBOUND,2023-12-14,19:15,19:37,19:26
9242,2023-12-14T19:36,'FORBES AVE + MOREWOOD AVE FS (CARNEGIE MELLON)',4407,67,INBOUND,2023-12-14,18:32,19:37,19:36
5960,2023-12-14T19:36,'FIFTH  AVE + ATWOOD ST',36,61D,OUTBOUND,2023-12-14,19:36,19:37,22:48
10746,2023-12-14T19:37,'HIGHLAND AVE + PENN',3268,71B,OUTBOUND,2023-12-14,19:00,19:38,19:30
7458,2023-12-14T19:28,'FIFTH  AVE + ATWOOD ST',36,61C,INBOUND,2023-12-14,18:30,19:43,19:17
10576,2023-12-14T19:39,'FIFTH  AVE + ATWOOD ST',36,P3,INBOUND,2023-12-14,19:15,19:40,19:37
10747,2023-12-14T19:35,'FIFTH AVE + OAKLAND AVE',2565,71B,OUTBOUND,2023-12-14,19:19,19:44,19:32
10747,2023-12-14T19:35,'FIFTH AVE + MOREWOOD AVE',1177,71B,OUTBOUND,2023-12-14,19:19,19:50,19:38
10747,2023-12-14T19:35,'HIGHLAND AVE + PENN',3268,71B,OUTBOUND,2023-12-14,19:19,20:01,19:49
7459,2023-12-14T19:40,'FORBES AVE + MOREWOOD AVE FS (CARNEGIE MELLON)',4407,61C,INBOUND,2023-12-14,18:58,19:41,19:38
6056,2023-12-14T19:40,'FIFTH  AVE + ATWOOD ST',36,61A,INBOUND,2023-12-14,18:52,19:42,19:40
9553,2023-12-14T19:42,'FIFTH AVE + OAKLAND AVE',2565,75,OUTBOUND,2023-12-14,19:27,19:42,19:36
11665,2023-12-14T19:43,'FORBES AVE + MOREWOOD AVE FS (CARNEGIE MELLON)',4407,69,INBOUND,2023-12-14,18:34,19:43,19:38
6057,2023-12-14T19:43,'FORBES + MURRAY FS',7096,61B,INBOUND,2023-12-14,19:15,19:44,19:40
7591,2023-12-14T19:43,'FIFTH AVE + OAKLAND AVE',2565,93,OUTBOUND,2023-12-14,19:08,19:44,19:42
9242,2023-12-14T19:44,'FIFTH  AVE + ATWOOD ST',36,67,INBOUND,2023-12-14,18:32,19:45,19:41
7459,2023-12-14T19:46,'FIFTH  AVE + ATWOOD ST',36,61C,INBOUND,2023-12-14,18:58,19:47,19:45
10696,2023-12-14T19:47,'FIFTH AVE + OAKLAND AVE',2565,P3,OUTBOUND,2023-12-14,19:40,19:48,19:45
10960,2023-12-14T19:47,'FIFTH AVE + MOREWOOD AVE',1167,71D,INBOUND,2023-12-14,19:24,19:48,19:44
6580,2023-12-14T19:48,'FORBES AVE + MOREWOOD (CARNEGIE MELLON)',7117,61A,OUTBOUND,2023-12-14,19:26,19:49,19:42
8882,2023-12-14T19:48,'FIFTH  AVE + ATWOOD ST',36,75,INBOUND,2023-12-14,19:04,19:49,19:44
6057,2023-12-14T19:49,'FORBES AVE + MOREWOOD AVE FS (CARNEGIE MELLON)',4407,61B,INBOUND,2023-12-14,19:15,19:50,19:45
9485,2023-12-14T19:49,'FIFTH  AVE + ATWOOD ST',36,71C,OUTBOUND,2023-12-14,19:43,19:51,08:20
11665,2023-12-14T19:50,'FIFTH  AVE + ATWOOD ST',36,69,INBOUND,2023-12-14,18:34,19:51,19:43
9093,2023-12-14T19:50,'HIGHLAND AVE + BAUM',19383,71B,INBOUND,2023-12-14,19:41,19:52,19:48
6578,2023-12-14T19:51,'FORBES AVE + MOREWOOD (CARNEGIE MELLON)',7117,61C,OUTBOUND,2023-12-14,19:11,19:52,19:26
5960,2023-12-14T19:51,'FORBES AVE + MOREWOOD (CARNEGIE MELLON)',7117,61D,OUTBOUND,2023-12-14,19:36,19:52,19:50
9486,2023-12-14T19:54,'FIFTH  AVE + ATWOOD ST',36,71D,OUTBOUND,2023-12-14,19:50,19:54,05:03
6580,2023-12-14T19:54,'FORBES AVE + MURRAY AVE',7126,61A,OUTBOUND,2023-12-14,19:26,19:55,19:48
5960,2023-12-14T19:56,'FORBES AVE + MURRAY AVE',7126,61D,OUTBOUND,2023-12-14,19:36,19:56,19:56
6578,2023-12-14T19:56,'FORBES AVE + MURRAY AVE',7126,61C,OUTBOUND,2023-12-14,19:11,19:57,19:32
6841,2023-12-14T19:56,'FORBES + MURRAY FS',7096,61D,INBOUND,2023-12-14,19:27,19:57,19:52
1922,2023-12-14T19:57,'FIFTH AVE + OAKLAND AVE',2565,54,INBOUND,2023-12-14,19:27,19:57,19:52
6579,2023-12-14T19:57,'FORBES AVE + MOREWOOD (CARNEGIE MELLON)',7117,61B,OUTBOUND,2023-12-14,19:14,19:59,19:30
2122,2023-12-14T19:58,'FIFTH  AVE + ATWOOD ST',36,54,OUTBOUND,2023-12-14,19:20,19:59,19:59
9485,2023-12-14T19:58,'FIFTH AVE + OAKLAND AVE',2565,71C,OUTBOUND,2023-12-14,19:43,19:59,19:49
6057,2023-12-14T19:59,'FIFTH  AVE + ATWOOD ST',36,61B,INBOUND,2023-12-14,19:15,20:00,19:54
9486,2023-12-14T19:59,'FIFTH AVE + OAKLAND AVE',2565,71D,OUTBOUND,2023-12-14,19:50,20:00,19:56
9093,2023-12-14T20:00,'FIFTH AVE + MOREWOOD AVE',1167,71B,INBOUND,2023-12-14,19:41,20:01,19:56
9487,2023-12-14T20:00,'FIFTH  AVE + ATWOOD ST',36,71A,OUTBOUND,2023-12-14,19:58,20:01,16:47
6841,2023-12-14T20:01,'FORBES AVE + MOREWOOD AVE FS (CARNEGIE MELLON)',4407,61D,INBOUND,2023-12-14,19:27,20:02,19:57
9487,2023-12-14T20:01,'FIFTH AVE + OAKLAND AVE',2565,71A,OUTBOUND,2023-12-14,19:58,20:02,20:04
6579,2023-12-14T20:03,'FORBES AVE + MURRAY AVE',7126,61B,OUTBOUND,2023-12-14,19:14,20:04,19:36
10748,2023-12-14T20:05,'FIFTH AVE + OAKLAND AVE',2565,71B,OUTBOUND,2023-12-14,19:46,20:06,19:59
10582,2023-12-14T20:05,'FIFTH  AVE + ATWOOD ST',36,P3,INBOUND,2023-12-14,19:45,20:07,20:07
9093,2023-12-14T20:05,'FIFTH  AVE + ATWOOD ST',36,71B,INBOUND,2023-12-14,19:41,20:07,20:02
9486,2023-12-14T20:05,'FIFTH AVE + MOREWOOD AVE',1177,71D,OUTBOUND,2023-12-14,19:50,20:07,20:02
11217,2023-12-14T20:05,'FORBES AVE + MOREWOOD AVE FS (CARNEGIE MELLON)',4407,58,INBOUND,2023-12-14,20:09,20:09,16:19
9160,2023-12-14T20:05,'FORBES AVE + MOREWOOD (CARNEGIE MELLON)',7117,67,OUTBOUND,2023-12-14,19:55,20:10,20:09
5961,2023-12-14T20:05,'FIFTH  AVE + ATWOOD ST',36,61D,OUTBOUND,2023-12-14,20:04,20:10,11:30
6582,2023-12-14T20:05,'FORBES AVE + MOREWOOD (CARNEGIE MELLON)',7117,61B,OUTBOUND,2023-12-14,19:38,20:11,19:54
9488,2023-12-14T20:05,'FIFTH  AVE + ATWOOD ST',36,71C,OUTBOUND,2023-12-14,20:13,20:13,15:02
10963,2023-12-14T20:05,'FIFTH AVE + MOREWOOD AVE',1167,71D,INBOUND,2023-12-14,19:54,20:13,20:14
7592,2023-12-14T20:05,'FIFTH AVE + OAKLAND AVE',2565,93,OUTBOUND,2023-12-14,19:39,20:13,20:11
10748,2023-12-14T20:05,'FIFTH AVE + MOREWOOD AVE',1177,71B,OUTBOUND,2023-12-14,19:46,20:13,20:05
10697,2023-12-14T20:05,'FIFTH AVE + OAKLAND AVE',2565,P3,OUTBOUND,2023-12-14,20:10,20:14,20:14
9658,2023-12-14T20:05,'FORBES AVE + MOREWOOD AVE FS (CARNEGIE MELLON)',4407,28X,OUTBOUND,2023-12-14,19:59,20:15,20:08
6584,2023-12-14T20:00,'FORBES AVE + MOREWOOD (CARNEGIE MELLON)',7117,61C,OUTBOUND,2023-12-14,20:01,20:15,20:16
6583,2023-12-14T20:05,'FORBES AVE + MOREWOOD (CARNEGIE MELLON)',7117,61A,OUTBOUND,2023-12-14,19:56,20:15,20:12
6582,2023-12-14T20:05,'FORBES AVE + MURRAY AVE',7126,61B,OUTBOUND,2023-12-14,19:38,20:16,20:00
9554,2023-12-14T20:05,'FIFTH AVE + OAKLAND AVE',2565,75,OUTBOUND,2023-12-14,20:07,20:16,20:16
9488,2023-12-14T20:05,'FIFTH AVE + OAKLAND AVE',2565,71C,OUTBOUND,2023-12-14,20:13,20:18,20:18
9161,2023-12-14T20:05,'FORBES AVE + MOREWOOD (CARNEGIE MELLON)',7117,69,OUTBOUND,2023-12-14,20:00,20:19,20:14
1872,2023-12-14T20:05,'FIFTH AVE + OAKLAND AVE',2565,54,INBOUND,2023-12-14,19:57,20:19,20:18
9658,2023-12-14T20:05,'FIFTH  AVE + ATWOOD ST',36,28X,OUTBOUND,2023-12-14,19:59,20:20,20:12
6584,2023-12-14T20:00,'FORBES AVE + MURRAY AVE',7126,61C,OUTBOUND,2023-12-14,20:01,20:20,20:22
9489,2023-12-14T20:05,'FIFTH  AVE + ATWOOD ST',36,71D,OUTBOUND,2023-12-14,20:20,20:20,15:56
6583,2023-12-14T20:05,'FORBES AVE + MURRAY AVE',7126,61A,OUTBOUND,2023-12-14,19:56,20:20,20:18
6059,2023-12-14T20:05,'FORBES + MURRAY FS',7096,61B,INBOUND,2023-12-14,19:46,20:21,20:11
10748,2023-12-14T20:05,'HIGHLAND AVE + PENN',3268,71B,OUTBOUND,2023-12-14,19:46,20:23,20:16
6843,2023-12-14T20:05,'FORBES + MURRAY FS',7096,61D,INBOUND,2023-12-14,19:59,20:24,20:22
5961,2023-12-14T20:05,'FORBES AVE + MOREWOOD (CARNEGIE MELLON)',7117,61D,OUTBOUND,2023-12-14,20:04,20:24,20:18
9489,2023-12-14T20:05,'FIFTH AVE + OAKLAND AVE',2565,71D,OUTBOUND,2023-12-14,20:20,20:25,20:25
6059,2023-12-14T20:05,'FORBES AVE + MOREWOOD AVE FS (CARNEGIE MELLON)',4407,61B,INBOUND,2023-12-14,19:46,20:26,20:15
2123,2023-12-14T20:05,'FIFTH  AVE + ATWOOD ST',36,54,OUTBOUND,2023-12-14,19:45,20:27,20:26
11669,2023-12-14T20:05,'FORBES AVE + MOREWOOD AVE FS (CARNEGIE MELLON)',4407,69,INBOUND,2023-12-14,19:24,20:27,20:28
9490,2023-12-14T20:05,'FIFTH  AVE + ATWOOD ST',36,71A,OUTBOUND,2023-12-14,20:28,20:28,17:04
6585,2023-12-14T20:05,'FORBES AVE + MOREWOOD (CARNEGIE MELLON)',7117,61B,OUTBOUND,2023-12-14,20:08,20:30,20:24
6843,2023-12-14T20:05,'FORBES AVE + MOREWOOD AVE FS (CARNEGIE MELLON)',4407,61D,INBOUND,2023-12-14,19:59,20:30,20:27
9489,2023-12-14T20:05,'FIFTH AVE + MOREWOOD AVE',1177,71D,OUTBOUND,2023-12-14,20:20,20:30,20:30
5961,2023-12-14T20:05,'FORBES AVE + MURRAY AVE',7126,61D,OUTBOUND,2023-12-14,20:04,20:30,20:24
8886,2023-12-14T20:05,'FIFTH  AVE + ATWOOD ST',36,75,INBOUND,2023-12-14,19:46,20:30,20:25
6060,2023-12-14T20:04,'FORBES + MURRAY FS',7096,61A,INBOUND,2023-12-14,19:52,20:31,20:28
7460,2023-12-14T20:05,'FORBES + MURRAY FS',7096,61C,INBOUND,2023-12-14,19:30,20:31,20:05
9281,2023-12-14T20:05,'FIFTH AVE + MOREWOOD AVE',1177,58,OUTBOUND,2023-12-14,19:45,20:31,20:23
11669,2023-12-14T20:05,'FIFTH  AVE + ATWOOD ST',36,69,INBOUND,2023-12-14,19:24,20:31,20:33
9490,2023-12-14T20:05,'FIFTH AVE + OAKLAND AVE',2565,71A,OUTBOUND,2023-12-14,20:28,20:33,20:33
9246,2023-12-14T20:05,'FORBES AVE + MOREWOOD AVE FS (CARNEGIE MELLON)',4407,67,INBOUND,2023-12-14,19:27,20:33,20:31
6059,2023-12-14T20:05,'FIFTH  AVE + ATWOOD ST',36,61B,INBOUND,2023-12-14,19:46,20:34,20:24
10749,2023-12-14T20:05,'FIFTH AVE + OAKLAND AVE',2565,71B,OUTBOUND,2023-12-14,20:16,20:34,20:30
6857,2023-12-14T23:03,'FORBES AVE + MOREWOOD AVE FS (CARNEGIE MELLON)',4407,61D,INBOUND,2023-12-14,22:36,23:03,23:00
8892,2023-12-14T23:04,'FIFTH  AVE + ATWOOD ST',36,75,INBOUND,2023-12-14,22:30,23:04,23:06
6600,2023-12-14T23:05,'FORBES AVE + MOREWOOD (CARNEGIE MELLON)',7117,61B,OUTBOUND,2023-12-14,22:38,23:06,22:53
10754,2023-12-14T23:06,'FIFTH AVE + OAKLAND AVE',2565,71B,OUTBOUND,2023-12-14,22:45,23:06,22:58
5705,2023-12-14T23:06,'FIFTH  AVE + ATWOOD ST',36,61A,INBOUND,2023-12-14,22:30,23:07,23:15
9505,2023-12-14T23:07,'FIFTH AVE + OAKLAND AVE',2565,71A,OUTBOUND,2023-12-14,22:58,23:08,23:03
5967,2023-12-14T23:08,'FIFTH  AVE + ATWOOD ST',36,61D,OUTBOUND,2023-12-14,23:06,23:09,15:40
6601,2023-12-14T23:09,'FORBES AVE + MOREWOOD (CARNEGIE MELLON)',7117,61A,OUTBOUND,2023-12-14,22:55,23:10,23:10
6600,2023-12-14T23:09,'FORBES AVE + MURRAY AVE',7126,61B,OUTBOUND,2023-12-14,22:38,23:10,22:58
9666,2023-12-14T23:12,'FORBES AVE + MOREWOOD AVE FS (CARNEGIE MELLON)',4407,28X,OUTBOUND,2023-12-14,23:02,23:12,23:11
10754,2023-12-14T23:12,'FIFTH AVE + MOREWOOD AVE',1177,71B,OUTBOUND,2023-12-14,22:45,23:13,23:02
10984,2023-12-14T23:14,'FIFTH AVE + MOREWOOD AVE',1167,71D,INBOUND,2023-12-14,22:58,23:14,23:15
9168,2023-12-14T23:14,'FORBES AVE + MOREWOOD (CARNEGIE MELLON)',7117,69,OUTBOUND,2023-12-14,23:05,23:14,23:17
1930,2023-12-14T23:14,'FIFTH AVE + OAKLAND AVE',2565,54,INBOUND,2023-12-14,22:47,23:14,23:09
6601,2023-12-14T23:14,'FORBES AVE + MURRAY AVE',7126,61A,OUTBOUND,2023-12-14,22:55,23:15,23:15
6602,2023-12-14T23:14,'FORBES AVE + MOREWOOD (CARNEGIE MELLON)',7117,61C,OUTBOUND,2023-12-14,23:02,23:15,23:15
9506,2023-12-14T23:16,'FIFTH  AVE + ATWOOD ST',36,71C,OUTBOUND,2023-12-14,23:13,23:16,23:14
9666,2023-12-14T23:17,'FIFTH  AVE + ATWOOD ST',36,28X,OUTBOUND,2023-12-14,23:02,23:17,23:15
5967,2023-12-14T23:18,'FORBES AVE + MOREWOOD (CARNEGIE MELLON)',7117,61D,OUTBOUND,2023-12-14,23:06,23:18,23:16
2130,2023-12-14T23:19,'FIFTH  AVE + ATWOOD ST',36,54,OUTBOUND,2023-12-14,22:40,23:19,23:19
6602,2023-12-14T23:19,'FORBES AVE + MURRAY AVE',7126,61C,OUTBOUND,2023-12-14,23:02,23:20,23:20
9507,2023-12-14T23:19,'FIFTH  AVE + ATWOOD ST',36,71D,OUTBOUND,2023-12-14,23:20,23:20,12:15
10754,2023-12-14T23:20,'HIGHLAND AVE + PENN',3268,71B,OUTBOUND,2023-12-14,22:45,23:21,23:13
9257,2023-12-14T23:20,'FORBES AVE + MOREWOOD AVE FS (CARNEGIE MELLON)',4407,67,INBOUND,2023-12-14,22:20,23:21,23:17
7793,2023-12-14T23:21,'FORBES + MURRAY FS',7096,61B,INBOUND,2023-12-14,22:58,23:22,23:14
9109,2023-12-14T23:22,'HIGHLAND AVE + BAUM',19383,71B,INBOUND,2023-12-14,23:15,23:23,23:21
9507,2023-12-14T23:23,'FIFTH AVE + OAKLAND AVE',2565,71D,OUTBOUND,2023-12-14,23:20,23:23,23:25
9506,2023-12-14T23:23,'FIFTH AVE + OAKLAND AVE',2565,71C,OUTBOUND,2023-12-14,23:13,23:24,23:18
5967,2023-12-14T23:24,'FORBES AVE + MURRAY AVE',7126,61D,OUTBOUND,2023-12-14,23:06,23:24,23:22
6859,2023-12-14T23:25,'FORBES + MURRAY FS',7096,61D,INBOUND,2023-12-14,23:06,23:26,23:26
7793,2023-12-14T23:26,'FORBES AVE + MOREWOOD AVE FS (CARNEGIE MELLON)',4407,61B,INBOUND,2023-12-14,22:58,23:26,23:18
10755,2023-12-14T23:27,'FIFTH AVE + OAKLAND AVE',2565,71B,OUTBOUND,2023-12-14,23:14,23:27,23:26
9257,2023-12-14T23:27,'FIFTH  AVE + ATWOOD ST',36,67,INBOUND,2023-12-14,22:20,23:27,23:22
9507,2023-12-14T23:28,'FIFTH AVE + MOREWOOD AVE',1177,71D,OUTBOUND,2023-12-14,23:20,23:29,23:30
9109,2023-12-14T23:29,'FIFTH AVE + MOREWOOD AVE',1167,71B,INBOUND,2023-12-14,23:15,23:30,23:27
5707,2023-12-14T23:29,'FORBES + MURRAY FS',7096,61A,INBOUND,2023-12-14,23:03,23:30,23:29
6859,2023-12-14T23:30,'FORBES AVE + MOREWOOD AVE FS (CARNEGIE MELLON)',4407,61D,INBOUND,2023-12-14,23:06,23:30,23:30
9508,2023-12-14T23:31,'FIFTH  AVE + ATWOOD ST',36,71A,OUTBOUND,2023-12-14,23:28,23:33,23:26
10755,2023-12-14T23:32,'FIFTH AVE + MOREWOOD AVE',1177,71B,OUTBOUND,2023-12-14,23:14,23:33,23:30
7793,2023-12-14T23:32,'FIFTH  AVE + ATWOOD ST',36,61B,INBOUND,2023-12-14,22:58,23:33,23:24
9109,2023-12-14T23:33,'FIFTH  AVE + ATWOOD ST',36,71B,INBOUND,2023-12-14,23:15,23:33,23:32
5707,2023-12-14T23:33,'FORBES AVE + MOREWOOD AVE FS (CARNEGIE MELLON)',4407,61A,INBOUND,2023-12-14,23:03,23:34,23:33
9559,2023-12-14T23:34,'FIFTH AVE + OAKLAND AVE',2565,75,OUTBOUND,2023-12-14,23:27,23:34,23:35
5968,2023-12-14T23:35,'FIFTH  AVE + ATWOOD ST',36,61D,OUTBOUND,2023-12-14,23:36,23:37,19:48
1880,2023-12-14T23:37,'FIFTH AVE + OAKLAND AVE',2565,54,INBOUND,2023-12-14,23:17,23:37,23:35
9508,2023-12-14T23:37,'FIFTH AVE + OAKLAND AVE',2565,71A,OUTBOUND,2023-12-14,23:28,23:37,23:33
5707,2023-12-14T23:38,'FIFTH  AVE + ATWOOD ST',36,61A,INBOUND,2023-12-14,23:03,23:40,23:41
10755,2023-12-14T23:39,'HIGHLAND AVE + PENN',3268,71B,OUTBOUND,2023-12-14,23:14,23:40,23:40
6604,2023-12-14T23:40,'FORBES AVE + MOREWOOD (CARNEGIE MELLON)',7117,61A,OUTBOUND,2023-12-14,23:22,23:41,23:35
7467,2023-12-14T23:42,'FORBES + MURRAY FS',7096,61C,INBOUND,2023-12-14,23:09,23:42,23:37
9509,2023-12-14T23:42,'FIFTH  AVE + ATWOOD ST',36,71C,OUTBOUND,2023-12-14,23:43,23:43,00:17
5968,2023-12-14T23:43,'FORBES AVE + MOREWOOD (CARNEGIE MELLON)',7117,61D,OUTBOUND,2023-12-14,23:36,23:44,23:46
7795,2023-12-14T23:43,'FORBES + MURRAY FS',7096,61B,INBOUND,2023-12-14,23:26,23:45,23:42
6604,2023-12-14T23:44,'FORBES AVE + MURRAY AVE',7126,61A,OUTBOUND,2023-12-14,23:22,23:45,23:40
10987,2023-12-14T23:45,'FIFTH AVE + MOREWOOD AVE',1167,71D,INBOUND,2023-12-14,23:28,23:46,23:45
9509,2023-12-14T23:46,'FIFTH AVE + OAKLAND AVE',2565,71C,OUTBOUND,2023-12-14,23:43,23:46,23:48
8893,2023-12-14T23:46,'FIFTH  AVE + ATWOOD ST',36,75,INBOUND,2023-12-14,23:10,23:46,23:46
5968,2023-12-14T23:46,'FORBES AVE + MURRAY AVE',7126,61D,OUTBOUND,2023-12-14,23:36,23:47,23:50
7467,2023-12-14T23:46,'FORBES AVE + MOREWOOD AVE FS (CARNEGIE MELLON)',4407,61C,INBOUND,2023-12-14,23:09,23:47,23:41
7795,2023-12-14T23:48,'FORBES AVE + MOREWOOD AVE FS (CARNEGIE MELLON)',4407,61B,INBOUND,2023-12-14,23:26,23:49,23:46
9510,2023-12-14T23:50,'FIFTH  AVE + ATWOOD ST',36,71D,OUTBOUND,2023-12-14,23:50,23:50,15:57
2131,2023-12-14T23:50,'FIFTH  AVE + ATWOOD ST',36,54,OUTBOUND,2023-12-14,23:12,23:51,23:48
7467,2023-12-14T23:51,'FIFTH  AVE + ATWOOD ST',36,61C,INBOUND,2023-12-14,23:09,23:52,23:47
7795,2023-12-14T23:53,'FIFTH  AVE + ATWOOD ST',36,61B,INBOUND,2023-12-14,23:26,23:54,23:52
9169,2023-12-14T23:53,'FORBES AVE + MOREWOOD (CARNEGIE MELLON)',7117,67,OUTBOUND,2023-12-14,23:35,23:54,23:48
9510,2023-12-14T23:55,'FIFTH AVE + OAKLAND AVE',2565,71D,OUTBOUND,2023-12-14,23:50,23:56,23:55
6861,2023-12-14T23:56,'FORBES + MURRAY FS',7096,61D,INBOUND,2023-12-14,23:37,23:57,23:56
9511,2023-12-14T23:57,'FIFTH  AVE + ATWOOD ST',36,71A,OUTBOUND,2023-12-14,23:58,23:58,15:49
10756,2023-12-14T23:58,'FIFTH AVE + OAKLAND AVE',2565,71B,OUTBOUND,2023-12-14,23:44,23:58,23:56
9111,2023-12-14T23:58,'HIGHLAND AVE + BAUM',19383,71B,INBOUND,2023-12-14,23:46,23:59,23:52
1932,2023-12-14T23:59,'FIFTH AVE + OAKLAND AVE',2565,54,INBOUND,2023-12-14,23:37,23:59,23:59
9511,2023-12-15T00:01,'FIFTH AVE + OAKLAND AVE',2565,71A,OUTBOUND,2023-12-14,23:58,00:02,00:03
9510,2023-12-15T00:01,'FIFTH AVE + MOREWOOD AVE',1177,71D,OUTBOUND,2023-12-14,23:50,00:02,00:00
6861,2023-12-15T00:01,'FORBES AVE + MOREWOOD AVE FS (CARNEGIE MELLON)',4407,61D,INBOUND,2023-12-14,23:37,00:02,00:00
6606,2023-12-15T00:02,'FORBES AVE + MOREWOOD (CARNEGIE MELLON)',7117,61B,OUTBOUND,2023-12-14,23:37,00:03,23:50
10756,2023-12-15T00:02,'FIFTH AVE + MOREWOOD AVE',1177,71B,OUTBOUND,2023-12-14,23:44,00:04,00:00
5709,2023-12-15T00:03,'FORBES + MURRAY FS',7096,61A,INBOUND,2023-12-14,23:33,00:04,23:59
9111,2023-12-15T00:04,'FIFTH AVE + MOREWOOD AVE',1167,71B,INBOUND,2023-12-14,23:46,00:05,23:57
6606,2023-12-15T00:06,'FORBES AVE + MURRAY AVE',7126,61B,OUTBOUND,2023-12-14,23:37,00:07,23:55
8895,2023-12-15T00:07,'FIFTH  AVE + ATWOOD ST',36,75,INBOUND,2023-12-14,23:35,00:08,00:11
5709,2023-12-15T00:08,'FORBES AVE + MOREWOOD AVE FS (CARNEGIE MELLON)',4407,61A,INBOUND,2023-12-14,23:33,00:09,00:03
9111,2023-12-15T00:08,'FIFTH  AVE + ATWOOD ST',36,71B,INBOUND,2023-12-14,23:46,00:10,00:02
10756,2023-12-15T00:09,'HIGHLAND AVE + PENN',3268,71B,OUTBOUND,2023-12-14,23:44,00:12,00:10
6607,2023-12-15T00:11,'FORBES AVE + MOREWOOD (CARNEGIE MELLON)',7117,61A,OUTBOUND,2023-12-14,23:55,00:12,00:08
2132,2023-12-15T00:12,'FIFTH  AVE + ATWOOD ST',36,54,OUTBOUND,2023-12-14,23:33,00:13,00:12
10991,2023-12-15T00:15,'FIFTH AVE + MOREWOOD AVE',1167,71D,INBOUND,2023-12-14,23:58,00:16,00:15
5709,2023-12-15T00:13,'FIFTH  AVE + ATWOOD ST',36,61A,INBOUND,2023-12-14,23:33,00:17,00:11
6607,2023-12-15T00:15,'FORBES AVE + MURRAY AVE',7126,61A,OUTBOUND,2023-12-14,23:55,00:16,00:13
7797,2023-12-15T00:17,'FORBES + MURRAY FS',7096,61B,INBOUND,2023-12-14,23:59,00:18,00:15
6608,2023-12-15T00:19,'FORBES AVE + MOREWOOD (CARNEGIE MELLON)',7117,61C,OUTBOUND,2023-12-14,23:59,00:20,00:12
7797,2023-12-15T00:21,'FORBES AVE + MOREWOOD AVE FS (CARNEGIE MELLON)',4407,61B,INBOUND,2023-12-14,23:59,00:22,00:19
6608,2023-12-15T00:24,'FORBES AVE + MURRAY AVE',7126,61C,OUTBOUND,2023-12-14,23:59,00:24,00:17
7797,2023-12-15T00:28,'FIFTH  AVE + ATWOOD ST',36,61B,INBOUND,2023-12-14,23:59,00:28,00:24
7468,2023-12-15T00:37,'FORBES + MURRAY FS',7096,61C,INBOUND,2023-12-14,23:39,00:37,00:07
7468,2023-12-15T00:41,'FORBES AVE + MOREWOOD AVE FS (CARNEGIE MELLON)',4407,61C,INBOUND,2023-12-14,23:39,00:41,00:11
7468,2023-12-15T00:43,'FIFTH  AVE + ATWOOD ST',36,61C,INBOUND,2023-12-14,23:39,00:44,00:17
9372,2023-12-15T08:46,'FIFTH AVE + MOREWOOD AVE',1177,71D,OUTBOUND,2023-12-15,08:35,08:46,08:46
9191,2023-12-15T08:46,'FORBES AVE + MOREWOOD AVE FS (CARNEGIE MELLON)',4407,67,INBOUND,2023-12-15,07:34,08:46,08:43
9373,2023-12-15T08:46,'FIFTH AVE + OAKLAND AVE',2565,71A,OUTBOUND,2023-12-15,08:39,08:47,08:45
6464,2023-12-15T08:46,'FORBES AVE + MURRAY AVE',7126,61C,OUTBOUND,2023-12-15,08:22,08:47,08:41
9006,2023-12-15T08:47,'FIFTH AVE + MOREWOOD AVE',1167,71B,INBOUND,2023-12-15,08:31,08:48,08:48
7422,2023-12-15T08:48,'FIFTH  AVE + ATWOOD ST',36,61C,INBOUND,2023-12-15,07:52,08:48,08:48
1182,2023-12-15T08:48,'FIFTH AVE + OAKLAND AVE',2565,54,INBOUND,2023-12-15,08:17,08:48,08:49
6463,2023-12-15T08:48,'FORBES AVE + MURRAY AVE',7126,61A,OUTBOUND,2023-12-15,08:19,08:48,08:42
10386,2023-12-15T08:48,'FIFTH  AVE + ATWOOD ST',36,P3,INBOUND,2023-12-15,08:24,08:49,08:51
2086,2023-12-15T08:48,'FIFTH  AVE + ATWOOD ST',36,54,OUTBOUND,2023-12-15,08:01,08:49,08:47
5984,2023-12-15T08:49,'FIFTH  AVE + ATWOOD ST',36,61B,INBOUND,2023-12-15,08:13,08:50,08:52
9615,2023-12-15T08:49,'FORBES AVE + MOREWOOD AVE FS (CARNEGIE MELLON)',4407,28X,OUTBOUND,2023-12-15,08:38,08:50,08:47
9375,2023-12-15T08:49,'FIFTH  AVE + ATWOOD ST',36,71D,OUTBOUND,2023-12-15,08:50,08:50,20:48
6767,2023-12-15T08:49,'FORBES AVE + MOREWOOD AVE FS (CARNEGIE MELLON)',4407,61D,INBOUND,2023-12-15,08:17,08:50,08:51
7423,2023-12-15T08:51,'FORBES + MURRAY FS',7096,61C,INBOUND,2023-12-15,08:07,08:51,08:48
9191,2023-12-15T08:52,'FIFTH  AVE + ATWOOD ST',36,67,INBOUND,2023-12-15,07:34,08:53,08:49
9376,2023-12-15T08:54,'FIFTH  AVE + ATWOOD ST',36,71A,OUTBOUND,2023-12-15,08:54,08:55,08:20
9008,2023-12-15T08:55,'HIGHLAND AVE + BAUM',19383,71B,INBOUND,2023-12-15,08:47,08:55,08:55
9006,2023-12-15T08:55,'FIFTH  AVE + ATWOOD ST',36,71B,INBOUND,2023-12-15,08:31,08:55,08:56
9375,2023-12-15T08:55,'FIFTH AVE + OAKLAND AVE',2565,71D,OUTBOUND,2023-12-15,08:50,08:56,08:56
7423,2023-12-15T08:56,'FORBES AVE + MOREWOOD AVE FS (CARNEGIE MELLON)',4407,61C,INBOUND,2023-12-15,08:07,08:57,08:54
5924,2023-12-15T08:56,'FIFTH  AVE + ATWOOD ST',36,61D,OUTBOUND,2023-12-15,08:58,08:58,07:49
9615,2023-12-15T08:57,'FIFTH  AVE + ATWOOD ST',36,28X,OUTBOUND,2023-12-15,08:38,08:57,08:51
10842,2023-12-15T08:57,'FIFTH AVE + MOREWOOD AVE',1167,71D,INBOUND,2023-12-15,08:33,08:58,08:57
9377,2023-12-15T08:58,'FIFTH  AVE + ATWOOD ST',36,71C,OUTBOUND,2023-12-15,09:02,09:02,19:49
6466,2023-12-15T08:59,'FORBES AVE + MOREWOOD (CARNEGIE MELLON)',7117,61A,OUTBOUND,2023-12-15,08:33,08:59,08:51
5986,2023-12-15T08:59,'FORBES + MURRAY FS',7096,61B,INBOUND,2023-12-15,08:28,08:59,08:53
6467,2023-12-15T08:59,'FORBES AVE + MOREWOOD (CARNEGIE MELLON)',7117,61C,OUTBOUND,2023-12-15,08:36,08:59,08:55
9376,2023-12-15T09:00,'FIFTH AVE + OAKLAND AVE',2565,71A,OUTBOUND,2023-12-15,08:54,09:00,09:00
6770,2023-12-15T09:00,'FORBES + MURRAY FS',7096,61D,INBOUND,2023-12-15,08:32,09:01,09:00
6468,2023-12-15T09:01,'FORBES AVE + MOREWOOD (CARNEGIE MELLON)',7117,61B,OUTBOUND,2023-12-15,08:41,09:01,08:58
9375,2023-12-15T09:01,'FIFTH AVE + MOREWOOD AVE',1177,71D,OUTBOUND,2023-12-15,08:50,09:01,09:01
7423,2023-12-15T09:02,'FIFTH  AVE + ATWOOD ST',36,61C,INBOUND,2023-12-15,08:07,09:03,09:03
6466,2023-12-15T09:03,'FORBES AVE + MURRAY AVE',7126,61A,OUTBOUND,2023-12-15,08:33,09:03,08:56
6467,2023-12-15T09:03,'FORBES AVE + MURRAY AVE',7126,61C,OUTBOUND,2023-12-15,08:36,09:03,09:01
10710,2023-12-15T09:03,'FIFTH AVE + OAKLAND AVE',2565,71B,OUTBOUND,2023-12-15,08:43,09:03,08:59
9378,2023-12-15T09:03,'FIFTH  AVE + ATWOOD ST',36,71D,OUTBOUND,2023-12-15,09:05,09:05,08:24
5985,2023-12-15T09:03,'FORBES + MURRAY FS',7096,61A,INBOUND,2023-12-15,08:23,09:05,09:02
9008,2023-12-15T09:04,'FIFTH AVE + MOREWOOD AVE',1167,71B,INBOUND,2023-12-15,08:47,09:05,09:04
5986,2023-12-15T09:05,'FORBES AVE + MOREWOOD AVE FS (CARNEGIE MELLON)',4407,61B,INBOUND,2023-12-15,08:28,09:05,08:58
6468,2023-12-15T09:05,'FORBES AVE + MURRAY AVE',7126,61B,OUTBOUND,2023-12-15,08:41,09:06,09:04
9377,2023-12-15T09:05,'FIFTH AVE + OAKLAND AVE',2565,71C,OUTBOUND,2023-12-15,09:02,09:06,09:08
7424,2023-12-15T09:05,'FORBES + MURRAY FS',7096,61C,INBOUND,2023-12-15,08:24,09:06,09:03
6770,2023-12-15T09:06,'FORBES AVE + MOREWOOD AVE FS (CARNEGIE MELLON)',4407,61D,INBOUND,2023-12-15,08:32,09:07,09:06
6469,2023-12-15T09:07,'FORBES AVE + MOREWOOD (CARNEGIE MELLON)',7117,61A,OUTBOUND,2023-12-15,08:48,09:07,09:06
10394,2023-12-15T09:07,'FIFTH  AVE + ATWOOD ST',36,P3,INBOUND,2023-12-15,08:44,09:07,09:06
5988,2023-12-15T09:07,'FORBES + MURRAY FS',7096,61B,INBOUND,2023-12-15,08:43,09:08,09:08
5985,2023-12-15T09:08,'FORBES AVE + MOREWOOD AVE FS (CARNEGIE MELLON)',4407,61A,INBOUND,2023-12-15,08:23,09:08,09:07
9010,2023-12-15T09:08,'HIGHLAND AVE + BAUM',19383,71B,INBOUND,2023-12-15,09:02,09:09,09:10
5924,2023-12-15T09:08,'FORBES AVE + MOREWOOD (CARNEGIE MELLON)',7117,61D,OUTBOUND,2023-12-15,08:58,09:09,09:12
9378,2023-12-15T09:09,'FIFTH AVE + OAKLAND AVE',2565,71D,OUTBOUND,2023-12-15,09:05,09:09,09:11
9008,2023-12-15T09:10,'FIFTH  AVE + ATWOOD ST',36,71B,INBOUND,2023-12-15,08:47,09:11,09:11
10710,2023-12-15T09:10,'FIFTH AVE + MOREWOOD AVE',1177,71B,OUTBOUND,2023-12-15,08:43,09:11,09:03
7424,2023-12-15T09:11,'FORBES AVE + MOREWOOD AVE FS (CARNEGIE MELLON)',4407,61C,INBOUND,2023-12-15,08:24,09:11,09:09
6469,2023-12-15T09:11,'FORBES AVE + MURRAY AVE',7126,61A,OUTBOUND,2023-12-15,08:48,09:12,09:11
8842,2023-12-15T09:11,'FIFTH  AVE + ATWOOD ST',36,75,INBOUND,2023-12-15,08:28,09:12,09:15
1896,2023-12-15T09:11,'FIFTH AVE + OAKLAND AVE',2565,54,INBOUND,2023-12-15,08:37,09:12,09:04
5988,2023-12-15T09:12,'FORBES AVE + MOREWOOD AVE FS (CARNEGIE MELLON)',4407,61B,INBOUND,2023-12-15,08:43,09:12,09:13
6771,2023-12-15T09:12,'FORBES + MURRAY FS',7096,61D,INBOUND,2023-12-15,08:47,09:13,09:15
9194,2023-12-15T09:12,'FORBES AVE + MOREWOOD AVE FS (CARNEGIE MELLON)',4407,67,INBOUND,2023-12-15,08:09,09:13,09:18
10711,2023-12-15T09:13,'FIFTH AVE + OAKLAND AVE',2565,71B,OUTBOUND,2023-12-15,08:58,09:13,09:14
10665,2023-12-15T09:13,'FIFTH AVE + OAKLAND AVE',2565,P3,OUTBOUND,2023-12-15,09:10,09:13,09:14
5924,2023-12-15T09:13,'FORBES AVE + MURRAY AVE',7126,61D,OUTBOUND,2023-12-15,08:58,09:14,09:17
9380,2023-12-15T09:13,'FIFTH  AVE + ATWOOD ST',36,71C,OUTBOUND,2023-12-15,09:17,09:17,05:55
5986,2023-12-15T09:14,'FIFTH  AVE + ATWOOD ST',36,61B,INBOUND,2023-12-15,08:28,09:14,09:07
10846,2023-12-15T09:14,'FIFTH AVE + MOREWOOD AVE',1167,71D,INBOUND,2023-12-15,08:48,09:14,09:12
9379,2023-12-15T09:14,'FIFTH AVE + OAKLAND AVE',2565,71A,OUTBOUND,2023-12-15,09:09,09:14,09:15
5987,2023-12-15T09:14,'FORBES + MURRAY FS',7096,61A,INBOUND,2023-12-15,08:38,09:15,09:17
6471,2023-12-15T09:15,'FORBES AVE + MOREWOOD (CARNEGIE MELLON)',7117,61B,OUTBOUND,2023-12-15,08:56,09:16,09:13
6470,2023-12-15T09:16,'FORBES AVE + MOREWOOD (CARNEGIE MELLON)',7117,61C,OUTBOUND,2023-12-15,08:51,09:16,09:09
9378,2023-12-15T09:16,'FIFTH AVE + MOREWOOD AVE',1177,71D,OUTBOUND,2023-12-15,09:05,09:17,09:16
5985,2023-12-15T09:16,'FIFTH  AVE + ATWOOD ST',36,61A,INBOUND,2023-12-15,08:23,09:17,09:15
9010,2023-12-15T09:16,'FIFTH AVE + MOREWOOD AVE',1167,71B,INBOUND,2023-12-15,09:02,09:17,09:19
7557,2023-12-15T09:16,'FIFTH AVE + OAKLAND AVE',2565,93,OUTBOUND,2023-12-15,08:37,09:17,09:15
6771,2023-12-15T09:17,'FORBES AVE + MOREWOOD AVE FS (CARNEGIE MELLON)',4407,61D,INBOUND,2023-12-15,08:47,09:17,09:21
9129,2023-12-15T09:17,'FORBES AVE + MOREWOOD (CARNEGIE MELLON)',7117,69,OUTBOUND,2023-12-15,09:00,09:17,09:14
9617,2023-12-15T09:17,'FORBES AVE + MOREWOOD AVE FS (CARNEGIE MELLON)',4407,28X,OUTBOUND,2023-12-15,09:08,09:18,09:17
10711,2023-12-15T09:18,'FIFTH AVE + MOREWOOD AVE',1177,71B,OUTBOUND,2023-12-15,08:58,09:18,09:18
7424,2023-12-15T09:18,'FIFTH  AVE + ATWOOD ST',36,61C,INBOUND,2023-12-15,08:24,09:19,09:18
5988,2023-12-15T09:18,'FIFTH  AVE + ATWOOD ST',36,61B,INBOUND,2023-12-15,08:43,09:21,09:22
6470,2023-12-15T09:19,'FORBES AVE + MURRAY AVE',7126,61C,OUTBOUND,2023-12-15,08:51,09:20,09:16
10710,2023-12-15T09:19,'HIGHLAND AVE + PENN',3268,71B,OUTBOUND,2023-12-15,08:43,09:20,09:12
9194,2023-12-15T09:19,'FIFTH  AVE + ATWOOD ST',36,67,INBOUND,2023-12-15,08:09,09:20,09:24
2088,2023-12-15T09:20,'FIFTH  AVE + ATWOOD ST',36,54,OUTBOUND,2023-12-15,08:31,09:20,09:18
6471,2023-12-15T09:20,'FORBES AVE + MURRAY AVE',7126,61B,OUTBOUND,2023-12-15,08:56,09:21,09:19
11198,2023-12-15T09:20,'FORBES AVE + MOREWOOD AVE FS (CARNEGIE MELLON)',4407,58,INBOUND,2023-12-15,09:21,09:21,07:52
6472,2023-12-15T09:21,'FORBES AVE + MOREWOOD (CARNEGIE MELLON)',7117,61A,OUTBOUND,2023-12-15,09:03,09:21,09:19
9380,2023-12-15T09:21,'FIFTH AVE + OAKLAND AVE',2565,71C,OUTBOUND,2023-12-15,09:17,09:21,09:23
5987,2023-12-15T09:21,'FORBES AVE + MOREWOOD AVE FS (CARNEGIE MELLON)',4407,61A,INBOUND,2023-12-15,08:38,09:22,09:22
9381,2023-12-15T09:21,'FIFTH  AVE + ATWOOD ST',36,71D,OUTBOUND,2023-12-15,09:20,09:23,22:52
9382,2023-12-15T09:23,'FIFTH  AVE + ATWOOD ST',36,71A,OUTBOUND,2023-12-15,09:24,09:24,16:06
9010,2023-12-15T09:23,'FIFTH  AVE + ATWOOD ST',36,71B,INBOUND,2023-12-15,09:02,09:24,09:26
9617,2023-12-15T09:23,'FIFTH  AVE + ATWOOD ST',36,28X,OUTBOUND,2023-12-15,09:08,09:24,09:21
6472,2023-12-15T09:24,'FORBES AVE + MURRAY AVE',7126,61A,OUTBOUND,2023-12-15,09:03,09:25,09:24
10399,2023-12-15T09:23,'FIFTH  AVE + ATWOOD ST',36,P3,INBOUND,2023-12-15,08:59,09:25,09:21
9013,2023-12-15T09:25,'HIGHLAND AVE + BAUM',19383,71B,INBOUND,2023-12-15,09:17,09:25,09:25
11629,2023-12-15T09:25,'FORBES AVE + MOREWOOD AVE FS (CARNEGIE MELLON)',4407,69,INBOUND,2023-12-15,08:12,09:26,09:26
6474,2023-12-15T09:26,'FORBES AVE + MOREWOOD (CARNEGIE MELLON)',7117,61B,OUTBOUND,2023-12-15,09:09,09:26,09:26
9130,2023-12-15T09:26,'FORBES AVE + MOREWOOD (CARNEGIE MELLON)',7117,67,OUTBOUND,2023-12-15,09:05,09:26,09:19
10711,2023-12-15T09:26,'HIGHLAND AVE + PENN',3268,71B,OUTBOUND,2023-12-15,08:58,09:27,09:27
5926,2023-12-15T09:26,'FIFTH  AVE + ATWOOD ST',36,61D,OUTBOUND,2023-12-15,09:28,09:28,15:06
5987,2023-12-15T09:27,'FIFTH  AVE + ATWOOD ST',36,61A,INBOUND,2023-12-15,08:38,09:28,09:30
9381,2023-12-15T09:28,'FIFTH AVE + OAKLAND AVE',2565,71D,OUTBOUND,2023-12-15,09:20,09:28,09:26
6773,2023-12-15T09:30,'FORBES + MURRAY FS',7096,61D,INBOUND,2023-12-15,09:03,09:30,09:30
10712,2023-12-15T09:30,'FIFTH AVE + OAKLAND AVE',2565,71B,OUTBOUND,2023-12-15,09:13,09:30,09:28
6474,2023-12-15T09:30,'FORBES AVE + MURRAY AVE',7126,61B,OUTBOUND,2023-12-15,09:09,09:31,09:32
10849,2023-12-15T09:30,'FIFTH AVE + MOREWOOD AVE',1167,71D,INBOUND,2023-12-15,09:06,09:32,09:28
9382,2023-12-15T09:31,'FIFTH AVE + OAKLAND AVE',2565,71A,OUTBOUND,2023-12-15,09:24,09:31,09:30
10666,2023-12-15T09:31,'FIFTH AVE + OAKLAND AVE',2565,P3,OUTBOUND,2023-12-15,09:25,09:32,09:29
9383,2023-12-15T09:22,'FIFTH  AVE + ATWOOD ST',36,71C,OUTBOUND,2023-12-15,09:32,09:33,11:37
11629,2023-12-15T09:32,'FIFTH  AVE + ATWOOD ST',36,69,INBOUND,2023-12-15,08:12,09:33,09:31
6473,2023-12-15T09:34,'FORBES AVE + MOREWOOD (CARNEGIE MELLON)',7117,61C,OUTBOUND,2023-12-15,09:05,09:34,09:23
5989,2023-12-15T09:34,'FORBES + MURRAY FS',7096,61A,INBOUND,2023-12-15,08:52,09:35,09:32
9013,2023-12-15T09:35,'FIFTH AVE + MOREWOOD AVE',1167,71B,INBOUND,2023-12-15,09:17,09:35,09:34
5992,2023-12-15T09:35,'FORBES + MURRAY FS',7096,61B,INBOUND,2023-12-15,09:13,09:35,09:38
9381,2023-12-15T09:35,'FIFTH AVE + MOREWOOD AVE',1177,71D,OUTBOUND,2023-12-15,09:20,09:36,09:31
6773,2023-12-15T09:36,'FORBES AVE + MOREWOOD AVE FS (CARNEGIE MELLON)',4407,61D,INBOUND,2023-12-15,09:03,09:37,09:36
10712,2023-12-15T09:36,'FIFTH AVE + MOREWOOD AVE',1177,71B,OUTBOUND,2023-12-15,09:13,09:37,09:32
9383,2023-12-15T09:36,'FIFTH AVE + OAKLAND AVE',2565,71C,OUTBOUND,2023-12-15,09:32,09:37,09:38
9384,2023-12-15T09:37,'FIFTH  AVE + ATWOOD ST',36,71D,OUTBOUND,2023-12-15,09:35,09:37,20:37
6473,2023-12-15T09:38,'FORBES AVE + MURRAY AVE',7126,61C,OUTBOUND,2023-12-15,09:05,09:38,09:30
9015,2023-12-15T09:38,'HIGHLAND AVE + BAUM',19383,71B,INBOUND,2023-12-15,09:32,09:38,09:37
9385,2023-12-15T09:38,'FIFTH  AVE + ATWOOD ST',36,71A,OUTBOUND,2023-12-15,09:39,09:39,20:32
6475,2023-12-15T09:38,'FORBES AVE + MOREWOOD (CARNEGIE MELLON)',7117,61A,OUTBOUND,2023-12-15,09:18,09:39,09:34
5989,2023-12-15T09:39,'FORBES AVE + MOREWOOD AVE FS (CARNEGIE MELLON)',4407,61A,INBOUND,2023-12-15,08:52,09:40,09:37
1183,2023-12-15T09:39,'FIFTH AVE + OAKLAND AVE',2565,54,INBOUND,2023-12-15,09:07,09:40,09:39
7426,2023-12-15T09:40,'FORBES + MURRAY FS',7096,61C,INBOUND,2023-12-15,08:54,09:41,09:33
5992,2023-12-15T09:40,'FORBES AVE + MOREWOOD AVE FS (CARNEGIE MELLON)',4407,61B,INBOUND,2023-12-15,09:13,09:41,09:43
8844,2023-12-15T09:41,'FIFTH  AVE + ATWOOD ST',36,75,INBOUND,2023-12-15,08:53,09:41,09:40
5926,2023-12-15T09:41,'FORBES AVE + MOREWOOD (CARNEGIE MELLON)',7117,61D,OUTBOUND,2023-12-15,09:28,09:42,09:43
9013,2023-12-15T09:41,'FIFTH  AVE + ATWOOD ST',36,71B,INBOUND,2023-12-15,09:17,09:42,09:41
6476,2023-12-15T09:42,'FORBES AVE + MOREWOOD (CARNEGIE MELLON)',7117,61C,OUTBOUND,2023-12-15,09:20,09:42,09:38
7558,2023-12-15T09:42,'FIFTH AVE + OAKLAND AVE',2565,93,OUTBOUND,2023-12-15,09:08,09:42,09:44
6475,2023-12-15T09:42,'FORBES AVE + MURRAY AVE',7126,61A,OUTBOUND,2023-12-15,09:18,09:43,09:39
9269,2023-12-15T09:41,'FIFTH AVE + MOREWOOD AVE',1177,58,OUTBOUND,2023-12-15,09:00,09:43,09:42
9384,2023-12-15T09:42,'FIFTH AVE + OAKLAND AVE',2565,71D,OUTBOUND,2023-12-15,09:35,09:43,09:41
10712,2023-12-15T09:43,'HIGHLAND AVE + PENN',3268,71B,OUTBOUND,2023-12-15,09:13,09:43,09:42
10713,2023-12-15T09:43,'FIFTH AVE + OAKLAND AVE',2565,71B,OUTBOUND,2023-12-15,09:27,09:44,09:42
6775,2023-12-15T09:44,'FORBES + MURRAY FS',7096,61D,INBOUND,2023-12-15,09:18,09:44,09:45
9385,2023-12-15T09:44,'FIFTH AVE + OAKLAND AVE',2565,71A,OUTBOUND,2023-12-15,09:39,09:45,09:45
7426,2023-12-15T09:44,'FORBES AVE + MOREWOOD AVE FS (CARNEGIE MELLON)',4407,61C,INBOUND,2023-12-15,08:54,09:46,09:39
9528,2023-12-15T09:38,'FIFTH AVE + OAKLAND AVE',2565,75,OUTBOUND,2023-12-15,09:37,09:45,09:46
5927,2023-12-15T09:45,'FIFTH  AVE + ATWOOD ST',36,61D,OUTBOUND,2023-12-15,09:43,09:46,15:49
10405,2023-12-15T09:46,'FIFTH  AVE + ATWOOD ST',36,P3,INBOUND,2023-12-15,09:24,09:47,09:46
6476,2023-12-15T09:46,'FORBES AVE + MURRAY AVE',7126,61C,OUTBOUND,2023-12-15,09:20,09:47,09:45
5989,2023-12-15T09:46,'FIFTH  AVE + ATWOOD ST',36,61A,INBOUND,2023-12-15,08:52,09:47,09:45
5926,2023-12-15T09:46,'FORBES AVE + MURRAY AVE',7126,61D,OUTBOUND,2023-12-15,09:28,09:47,09:48
2090,2023-12-15T09:45,'FIFTH  AVE + ATWOOD ST',36,54,OUTBOUND,2023-12-15,08:51,09:47,09:37
9015,2023-12-15T09:47,'FIFTH AVE + MOREWOOD AVE',1167,71B,INBOUND,2023-12-15,09:32,09:47,09:46
10852,2023-12-15T09:47,'FIFTH AVE + MOREWOOD AVE',1167,71D,INBOUND,2023-12-15,09:21,09:48,09:43
5992,2023-12-15T09:47,'FIFTH  AVE + ATWOOD ST',36,61B,INBOUND,2023-12-15,09:13,09:48,09:52
5991,2023-12-15T09:48,'FORBES + MURRAY FS',7096,61A,INBOUND,2023-12-15,09:07,09:50,09:47
6775,2023-12-15T09:49,'FORBES AVE + MOREWOOD AVE FS (CARNEGIE MELLON)',4407,61D,INBOUND,2023-12-15,09:18,09:49,09:51
10713,2023-12-15T09:50,'FIFTH AVE + MOREWOOD AVE',1177,71B,OUTBOUND,2023-12-15,09:27,09:51,09:46
9619,2023-12-15T09:50,'FORBES AVE + MOREWOOD AVE FS (CARNEGIE MELLON)',4407,28X,OUTBOUND,2023-12-15,09:38,09:51,09:47
9384,2023-12-15T09:50,'FIFTH AVE + MOREWOOD AVE',1177,71D,OUTBOUND,2023-12-15,09:35,09:51,09:46
7427,2023-12-15T09:52,'FORBES + MURRAY FS',7096,61C,INBOUND,2023-12-15,09:11,09:52,09:50
10667,2023-12-15T09:53,'FIFTH AVE + OAKLAND AVE',2565,P3,OUTBOUND,2023-12-15,09:50,09:54,09:54
9388,2023-12-15T09:53,'FIFTH  AVE + ATWOOD ST',36,71A,OUTBOUND,2023-12-15,09:54,09:54,00:40
1898,2023-12-15T09:54,'FIFTH AVE + OAKLAND AVE',2565,54,INBOUND,2023-12-15,09:27,09:54,09:54
5991,2023-12-15T09:54,'FORBES AVE + MOREWOOD AVE FS (CARNEGIE MELLON)',4407,61A,INBOUND,2023-12-15,09:07,09:55,09:52
9387,2023-12-15T09:54,'FIFTH  AVE + ATWOOD ST',36,71D,OUTBOUND,2023-12-15,09:50,09:55,13:10
10714,2023-12-15T09:54,'FIFTH AVE + OAKLAND AVE',2565,71B,OUTBOUND,2023-12-15,09:42,09:55,09:57
9015,2023-12-15T09:54,'FIFTH  AVE + ATWOOD ST',36,71B,INBOUND,2023-12-15,09:32,09:55,09:52
9386,2023-12-15T09:54,'FIFTH  AVE + ATWOOD ST',36,71C,OUTBOUND,2023-12-15,09:47,09:56,14:40
7426,2023-12-15T09:55,'FIFTH  AVE + ATWOOD ST',36,61C,INBOUND,2023-12-15,08:54,09:56,09:48
9131,2023-12-15T09:55,'FORBES AVE + MOREWOOD (CARNEGIE MELLON)',7117,67,OUTBOUND,2023-12-15,09:40,09:56,09:54
7427,2023-12-15T09:56,'FORBES AVE + MOREWOOD AVE FS (CARNEGIE MELLON)',4407,61C,INBOUND,2023-12-15,09:11,09:57,09:56
9018,2023-12-15T09:57,'HIGHLAND AVE + BAUM',19383,71B,INBOUND,2023-12-15,09:51,09:57,09:59
6477,2023-12-15T09:57,'FORBES AVE + MOREWOOD (CARNEGIE MELLON)',7117,61B,OUTBOUND,2023-12-15,09:24,09:58,09:41
5994,2023-12-15T09:58,'FORBES + MURRAY FS',7096,61B,INBOUND,2023-12-15,09:31,09:58,09:56
10713,2023-12-15T09:58,'HIGHLAND AVE + PENN',3268,71B,OUTBOUND,2023-12-15,09:27,09:59,09:56
5927,2023-12-15T09:58,'FORBES AVE + MOREWOOD (CARNEGIE MELLON)',7117,61D,OUTBOUND,2023-12-15,09:43,09:59,09:58
6480,2023-12-15T09:59,'FORBES AVE + MOREWOOD (CARNEGIE MELLON)',7117,61B,OUTBOUND,2023-12-15,09:39,09:59,09:56
6478,2023-12-15T09:59,'FORBES AVE + MOREWOOD (CARNEGIE MELLON)',7117,61A,OUTBOUND,2023-12-15,09:33,09:59,09:49
5928,2023-12-15T09:59,'FIFTH  AVE + ATWOOD ST',36,61D,OUTBOUND,2023-12-15,09:58,10:00,11:23
9388,2023-12-15T09:59,'FIFTH AVE + OAKLAND AVE',2565,71A,OUTBOUND,2023-12-15,09:54,10:00,10:00
6479,2023-12-15T09:59,'FORBES AVE + MOREWOOD (CARNEGIE MELLON)',7117,61C,OUTBOUND,2023-12-15,09:36,10:00,09:53
9386,2023-12-15T10:00,'FIFTH AVE + OAKLAND AVE',2565,71C,OUTBOUND,2023-12-15,09:47,10:01,09:53
10855,2023-12-15T10:00,'FIFTH AVE + MOREWOOD AVE',1167,71D,INBOUND,2023-12-15,09:38,10:01,10:00
9619,2023-12-15T10:00,'FIFTH  AVE + ATWOOD ST',36,28X,OUTBOUND,2023-12-15,09:38,10:01,09:51
9197,2023-12-15T10:00,'FORBES AVE + MOREWOOD AVE FS (CARNEGIE MELLON)',4407,67,INBOUND,2023-12-15,08:44,10:01,09:53
10714,2023-12-15T10:00,'FIFTH AVE + MOREWOOD AVE',1177,71B,OUTBOUND,2023-12-15,09:42,10:02,10:01
9387,2023-12-15T10:01,'FIFTH AVE + OAKLAND AVE',2565,71D,OUTBOUND,2023-12-15,09:50,10:01,09:56
5991,2023-12-15T10:01,'FIFTH  AVE + ATWOOD ST',36,61A,INBOUND,2023-12-15,09:07,10:02,10:00
6477,2023-12-15T10:01,'FORBES AVE + MURRAY AVE',7126,61B,OUTBOUND,2023-12-15,09:24,10:03,09:47
5927,2023-12-15T10:02,'FORBES AVE + MURRAY AVE',7126,61D,OUTBOUND,2023-12-15,09:43,10:03,10:03
6777,2023-12-15T10:02,'FORBES + MURRAY FS',7096,61D,INBOUND,2023-12-15,09:37,10:03,10:04
5994,2023-12-15T10:02,'FORBES AVE + MOREWOOD AVE FS (CARNEGIE MELLON)',4407,61B,INBOUND,2023-12-15,09:31,10:04,10:01
6480,2023-12-15T10:03,'FORBES AVE + MURRAY AVE',7126,61B,OUTBOUND,2023-12-15,09:39,10:03,10:02
6478,2023-12-15T10:03,'FORBES AVE + MURRAY AVE',7126,61A,OUTBOUND,2023-12-15,09:33,10:03,09:54
9132,2023-12-15T10:03,'FORBES AVE + MOREWOOD (CARNEGIE MELLON)',7117,69,OUTBOUND,2023-12-15,09:50,10:04,10:04
5993,2023-12-15T10:03,'FORBES + MURRAY FS',7096,61A,INBOUND,2023-12-15,09:27,10:04,10:07
6479,2023-12-15T10:04,'FORBES AVE + MURRAY AVE',7126,61C,OUTBOUND,2023-12-15,09:36,10:05,10:00
8846,2023-12-15T10:04,'FIFTH  AVE + ATWOOD ST',36,75,INBOUND,2023-12-15,09:18,10:06,10:05
9018,2023-12-15T10:05,'FIFTH AVE + MOREWOOD AVE',1167,71B,INBOUND,2023-12-15,09:51,10:07,10:08
9389,2023-12-15T10:06,'FIFTH  AVE + ATWOOD ST',36,71C,OUTBOUND,2023-12-15,10:02,10:06,09:03
7427,2023-12-15T10:06,'FIFTH  AVE + ATWOOD ST',36,61C,INBOUND,2023-12-15,09:11,10:07,10:05
6486,2023-12-15T09:57,'FORBES AVE + MOREWOOD (CARNEGIE MELLON)',7117,61B,OUTBOUND,2023-12-15,10:09,10:26,10:26
6777,2023-12-15T10:07,'FORBES AVE + MOREWOOD AVE FS (CARNEGIE MELLON)',4407,61D,INBOUND,2023-12-15,09:37,10:08,10:10
6481,2023-12-15T10:07,'FORBES AVE + MOREWOOD (CARNEGIE MELLON)',7117,61A,OUTBOUND,2023-12-15,09:48,10:08,10:04
9387,2023-12-15T10:07,'FIFTH AVE + MOREWOOD AVE',1177,71D,OUTBOUND,2023-12-15,09:50,10:08,10:01
9197,2023-12-15T10:07,'FIFTH  AVE + ATWOOD ST',36,67,INBOUND,2023-12-15,08:44,10:08,09:59
5993,2023-12-15T10:07,'FORBES AVE + MOREWOOD AVE FS (CARNEGIE MELLON)',4407,61A,INBOUND,2023-12-15,09:27,10:09,10:12
10714,2023-12-15T10:08,'HIGHLAND AVE + PENN',3268,71B,OUTBOUND,2023-12-15,09:42,10:09,10:11
9390,2023-12-15T10:08,'FIFTH  AVE + ATWOOD ST',36,71D,OUTBOUND,2023-12-15,10:07,10:09,07:15
5994,2023-12-15T10:08,'FIFTH  AVE + ATWOOD ST',36,61B,INBOUND,2023-12-15,09:31,10:10,10:10
2091,2023-12-15T10:09,'FIFTH  AVE + ATWOOD ST',36,54,OUTBOUND,2023-12-15,09:21,10:10,10:08
6481,2023-12-15T10:11,'FORBES AVE + MURRAY AVE',7126,61A,OUTBOUND,2023-12-15,09:48,10:12,10:09
9529,2023-12-15T10:11,'FIFTH AVE + OAKLAND AVE',2565,75,OUTBOUND,2023-12-15,10:02,10:12,10:11
11631,2023-12-15T10:11,'FORBES AVE + MOREWOOD AVE FS (CARNEGIE MELLON)',4407,69,INBOUND,2023-12-15,09:03,10:13,10:13
5928,2023-12-15T10:12,'FORBES AVE + MOREWOOD (CARNEGIE MELLON)',7117,61D,OUTBOUND,2023-12-15,09:58,10:13,10:13
9389,2023-12-15T10:12,'FIFTH AVE + OAKLAND AVE',2565,71C,OUTBOUND,2023-12-15,10:02,10:13,10:08
9018,2023-12-15T10:13,'FIFTH  AVE + ATWOOD ST',36,71B,INBOUND,2023-12-15,09:51,10:14,10:15
9391,2023-12-15T10:13,'FIFTH  AVE + ATWOOD ST',36,71A,OUTBOUND,2023-12-15,10:12,10:14,12:44
9390,2023-12-15T10:13,'FIFTH AVE + OAKLAND AVE',2565,71D,OUTBOUND,2023-12-15,10:07,10:15,10:13
10410,2023-12-15T10:14,'FIFTH  AVE + ATWOOD ST',36,P3,INBOUND,2023-12-15,09:49,10:15,10:11
10715,2023-12-15T10:15,'FIFTH AVE + OAKLAND AVE',2565,71B,OUTBOUND,2023-12-15,09:57,10:16,10:12
5929,2023-12-15T10:15,'FIFTH  AVE + ATWOOD ST',36,61D,OUTBOUND,2023-12-15,10:17,10:17,13:26
5928,2023-12-15T10:16,'FORBES AVE + MURRAY AVE',7126,61D,OUTBOUND,2023-12-15,09:58,10:17,10:18
7559,2023-12-15T10:16,'FIFTH AVE + OAKLAND AVE',2565,93,OUTBOUND,2023-12-15,09:38,10:17,10:14
11631,2023-12-15T10:17,'FIFTH  AVE + ATWOOD ST',36,69,INBOUND,2023-12-15,09:03,10:18,10:19
5993,2023-12-15T10:17,'FIFTH  AVE + ATWOOD ST',36,61A,INBOUND,2023-12-15,09:27,10:18,10:20
9390,2023-12-15T10:18,'FIFTH AVE + MOREWOOD AVE',1177,71D,OUTBOUND,2023-12-15,10:07,10:20,10:18
5996,2023-12-15T10:19,'FORBES + MURRAY FS',7096,61B,INBOUND,2023-12-15,09:50,10:20,10:16
9391,2023-12-15T10:19,'FIFTH AVE + OAKLAND AVE',2565,71A,OUTBOUND,2023-12-15,10:12,10:20,10:18
9621,2023-12-15T10:20,'FORBES AVE + MOREWOOD AVE FS (CARNEGIE MELLON)',4407,28X,OUTBOUND,2023-12-15,10:08,10:21,10:17
10715,2023-12-15T10:20,'FIFTH AVE + MOREWOOD AVE',1177,71B,OUTBOUND,2023-12-15,09:57,10:22,10:16
10858,2023-12-15T10:21,'FIFTH AVE + MOREWOOD AVE',1167,71D,INBOUND,2023-12-15,09:58,10:22,10:20
7428,2023-12-15T10:23,'FORBES + MURRAY FS',7096,61C,INBOUND,2023-12-15,09:31,10:24,10:10
5995,2023-12-15T10:23,'FORBES + MURRAY FS',7096,61A,INBOUND,2023-12-15,09:47,10:25,10:27
11200,2023-12-15T10:23,'FORBES AVE + MOREWOOD AVE FS (CARNEGIE MELLON)',4407,58,INBOUND,2023-12-15,10:21,10:29,17:47
9621,2023-12-15T10:24,'FIFTH  AVE + ATWOOD ST',36,28X,OUTBOUND,2023-12-15,10:08,10:25,10:21
2092,2023-12-15T10:25,'FIFTH  AVE + ATWOOD ST',36,54,OUTBOUND,2023-12-15,09:41,10:26,10:27
6778,2023-12-15T10:25,'FORBES + MURRAY FS',7096,61D,INBOUND,2023-12-15,09:57,10:26,10:24
5996,2023-12-15T10:26,'FORBES AVE + MOREWOOD AVE FS (CARNEGIE MELLON)',4407,61B,INBOUND,2023-12-15,09:50,10:27,10:21
6484,2023-12-15T10:27,'FORBES AVE + MOREWOOD (CARNEGIE MELLON)',7117,61A,OUTBOUND,2023-12-15,10:01,10:28,10:17
10715,2023-12-15T10:28,'HIGHLAND AVE + PENN',3268,71B,OUTBOUND,2023-12-15,09:57,10:29,10:26
1185,2023-12-15T10:28,'FIFTH AVE + OAKLAND AVE',2565,54,INBOUND,2023-12-15,09:57,10:29,10:29
7428,2023-12-15T10:29,'FORBES AVE + MOREWOOD AVE FS (CARNEGIE MELLON)',4407,61C,INBOUND,2023-12-15,09:31,10:30,10:16
10716,2023-12-15T10:29,'FIFTH AVE + OAKLAND AVE',2565,71B,OUTBOUND,2023-12-15,10:12,10:30,10:27
5995,2023-12-15T10:30,'FORBES AVE + MOREWOOD AVE FS (CARNEGIE MELLON)',4407,61A,INBOUND,2023-12-15,09:47,10:30,10:32
9393,2023-12-15T10:30,'FIFTH  AVE + ATWOOD ST',36,71D,OUTBOUND,2023-12-15,10:27,10:31,20:54
6778,2023-12-15T10:29,'FORBES AVE + MOREWOOD AVE FS (CARNEGIE MELLON)',4407,61D,INBOUND,2023-12-15,09:57,10:31,10:30
7429,2023-12-15T10:30,'FORBES + MURRAY FS',7096,61C,INBOUND,2023-12-15,09:50,10:31,10:30
9200,2023-12-15T10:30,'FORBES AVE + MOREWOOD AVE FS (CARNEGIE MELLON)',4407,67,INBOUND,2023-12-15,09:19,10:31,10:28
8848,2023-12-15T10:30,'FIFTH  AVE + ATWOOD ST',36,75,INBOUND,2023-12-15,09:43,10:32,10:30
5929,2023-12-15T10:31,'FORBES AVE + MOREWOOD (CARNEGIE MELLON)',7117,61D,OUTBOUND,2023-12-15,10:17,10:32,10:32
9394,2023-12-15T10:31,'FIFTH  AVE + ATWOOD ST',36,71A,OUTBOUND,2023-12-15,10:32,10:32,20:14
6484,2023-12-15T10:32,'FORBES AVE + MURRAY AVE',7126,61A,OUTBOUND,2023-12-15,10:01,10:33,10:22
6485,2023-12-15T10:33,'FORBES AVE + MOREWOOD (CARNEGIE MELLON)',7117,61C,OUTBOUND,2023-12-15,10:06,10:35,10:23
9133,2023-12-15T10:33,'FORBES AVE + MOREWOOD (CARNEGIE MELLON)',7117,67,OUTBOUND,2023-12-15,10:15,10:35,10:29
5998,2023-12-15T10:36,'FORBES + MURRAY FS',7096,61B,INBOUND,2023-12-15,10:10,10:36,10:36
5929,2023-12-15T10:35,'FORBES AVE + MURRAY AVE',7126,61D,OUTBOUND,2023-12-15,10:17,10:36,10:37
7429,2023-12-15T10:35,'FORBES AVE + MOREWOOD AVE FS (CARNEGIE MELLON)',4407,61C,INBOUND,2023-12-15,09:50,10:37,10:36
9393,2023-12-15T10:36,'FIFTH AVE + OAKLAND AVE',2565,71D,OUTBOUND,2023-12-15,10:27,10:37,10:33
5996,2023-12-15T10:36,'FIFTH  AVE + ATWOOD ST',36,61B,INBOUND,2023-12-15,09:50,10:38,10:30
10716,2023-12-15T10:36,'FIFTH AVE + MOREWOOD AVE',1177,71B,OUTBOUND,2023-12-15,10:12,10:38,10:31
9394,2023-12-15T10:38,'FIFTH AVE + OAKLAND AVE',2565,71A,OUTBOUND,2023-12-15,10:32,10:38,10:38
9023,2023-12-15T10:38,'HIGHLAND AVE + BAUM',19383,71B,INBOUND,2023-12-15,10:31,10:38,10:39
9530,2023-12-15T10:37,'FIFTH AVE + OAKLAND AVE',2565,75,OUTBOUND,2023-12-15,10:27,10:38,10:36
5930,2023-12-15T10:36,'FIFTH  AVE + ATWOOD ST',36,61D,OUTBOUND,2023-12-15,10:37,10:38,22:56
5995,2023-12-15T10:37,'FIFTH  AVE + ATWOOD ST',36,61A,INBOUND,2023-12-15,09:47,10:38,10:40
7428,2023-12-15T10:37,'FIFTH  AVE + ATWOOD ST',36,61C,INBOUND,2023-12-15,09:31,10:39,10:25
6485,2023-12-15T10:38,'FORBES AVE + MURRAY AVE',7126,61C,OUTBOUND,2023-12-15,10:06,10:39,10:30
9200,2023-12-15T10:38,'FIFTH  AVE + ATWOOD ST',36,67,INBOUND,2023-12-15,09:19,10:39,10:34
10863,2023-12-15T10:39,'FIFTH AVE + MOREWOOD AVE',1167,71D,INBOUND,2023-12-15,10:18,10:40,10:40
5998,2023-12-15T10:40,'FORBES AVE + MOREWOOD AVE FS (CARNEGIE MELLON)',4407,61B,INBOUND,2023-12-15,10:10,10:41,10:41
9393,2023-12-15T10:43,'FIFTH AVE + MOREWOOD AVE',1177,71D,OUTBOUND,2023-12-15,10:27,10:44,10:38
6781,2023-12-15T10:43,'FORBES + MURRAY FS',7096,61D,INBOUND,2023-12-15,10:17,10:44,10:44
5997,2023-12-15T10:44,'FORBES + MURRAY FS',7096,61A,INBOUND,2023-12-15,10:07,10:44,10:46
7429,2023-12-15T10:43,'FIFTH  AVE + ATWOOD ST',36,61C,INBOUND,2023-12-15,09:50,10:45,10:45
9395,2023-12-15T10:43,'FIFTH  AVE + ATWOOD ST',36,71C,OUTBOUND,2023-12-15,10:42,10:45,14:05
1900,2023-12-15T10:44,'FIFTH AVE + OAKLAND AVE',2565,54,INBOUND,2023-12-15,10:17,10:45,10:44
7561,2023-12-15T10:44,'FIFTH AVE + OAKLAND AVE',2565,93,OUTBOUND,2023-12-15,10:07,10:45,10:43
9023,2023-12-15T10:45,'FIFTH AVE + MOREWOOD AVE',1167,71B,INBOUND,2023-12-15,10:31,10:46,10:48
10716,2023-12-15T10:46,'HIGHLAND AVE + PENN',3268,71B,OUTBOUND,2023-12-15,10:12,10:46,10:42
6489,2023-12-15T10:45,'FORBES AVE + MOREWOOD (CARNEGIE MELLON)',7117,61B,OUTBOUND,2023-12-15,10:27,10:46,10:44
10417,2023-12-15T10:44,'FIFTH  AVE + ATWOOD ST',36,P3,INBOUND,2023-12-15,10:19,10:47,10:41
6488,2023-12-15T10:48,'FORBES AVE + MOREWOOD (CARNEGIE MELLON)',7117,61C,OUTBOUND,2023-12-15,10:23,10:48,10:39
6487,2023-12-15T10:48,'FORBES AVE + MOREWOOD (CARNEGIE MELLON)',7117,61A,OUTBOUND,2023-12-15,10:16,10:48,10:32
9270,2023-12-15T10:45,'FIFTH AVE + MOREWOOD AVE',1177,58,OUTBOUND,2023-12-15,10:00,10:48,10:42
5998,2023-12-15T10:49,'FIFTH  AVE + ATWOOD ST',36,61B,INBOUND,2023-12-15,10:10,10:49,10:50
9396,2023-12-15T10:49,'FIFTH  AVE + ATWOOD ST',36,71D,OUTBOUND,2023-12-15,10:47,10:49,20:57
6781,2023-12-15T10:48,'FORBES AVE + MOREWOOD AVE FS (CARNEGIE MELLON)',4407,61D,INBOUND,2023-12-15,10:17,10:50,10:50
5997,2023-12-15T10:48,'FORBES AVE + MOREWOOD AVE FS (CARNEGIE MELLON)',4407,61A,INBOUND,2023-12-15,10:07,10:50,10:51
6489,2023-12-15T10:48,'FORBES AVE + MURRAY AVE',7126,61B,OUTBOUND,2023-12-15,10:27,10:52,10:50
5930,2023-12-15T10:51,'FORBES AVE + MOREWOOD (CARNEGIE MELLON)',7117,61D,OUTBOUND,2023-12-15,10:37,10:51,10:52
6487,2023-12-15T10:51,'FORBES AVE + MURRAY AVE',7126,61A,OUTBOUND,2023-12-15,10:16,10:52,10:37
10717,2023-12-15T10:51,'FIFTH AVE + OAKLAND AVE',2565,71B,OUTBOUND,2023-12-15,10:31,10:52,10:45
9624,2023-12-15T10:51,'FORBES AVE + MOREWOOD AVE FS (CARNEGIE MELLON)',4407,28X,OUTBOUND,2023-12-15,10:38,10:52,10:47
9023,2023-12-15T10:50,'FIFTH  AVE + ATWOOD ST',36,71B,INBOUND,2023-12-15,10:31,10:53,10:55
6488,2023-12-15T10:52,'FORBES AVE + MURRAY AVE',7126,61C,OUTBOUND,2023-12-15,10:23,10:52,10:45
9395,2023-12-15T10:52,'FIFTH AVE + OAKLAND AVE',2565,71C,OUTBOUND,2023-12-15,10:42,10:52,10:48
8850,2023-12-15T10:52,'FIFTH  AVE + ATWOOD ST',36,75,INBOUND,2023-12-15,10:08,10:52,10:55
10669,2023-12-15T10:52,'FIFTH AVE + OAKLAND AVE',2565,P3,OUTBOUND,2023-12-15,10:45,10:53,10:49
9134,2023-12-15T10:54,'FORBES AVE + MOREWOOD (CARNEGIE MELLON)',7117,69,OUTBOUND,2023-12-15,10:40,10:54,10:55
9396,2023-12-15T10:54,'FIFTH AVE + OAKLAND AVE',2565,71D,OUTBOUND,2023-12-15,10:47,10:55,10:53
5930,2023-12-15T10:55,'FORBES AVE + MURRAY AVE',7126,61D,OUTBOUND,2023-12-15,10:37,10:55,10:57
10865,2023-12-15T10:56,'FIFTH AVE + MOREWOOD AVE',1167,71D,INBOUND,2023-12-15,10:38,10:57,11:00
5997,2023-12-15T10:56,'FIFTH  AVE + ATWOOD ST',36,61A,INBOUND,2023-12-15,10:07,10:57,11:00
6000,2023-12-15T10:56,'FORBES + MURRAY FS',7096,61B,INBOUND,2023-12-15,10:30,10:59,10:56
6490,2023-12-15T10:57,'FORBES AVE + MOREWOOD (CARNEGIE MELLON)',7117,61A,OUTBOUND,2023-12-15,10:36,10:57,10:53
5931,2023-12-15T10:57,'FIFTH  AVE + ATWOOD ST',36,61D,OUTBOUND,2023-12-15,10:57,10:58,08:33
9624,2023-12-15T10:58,'FIFTH  AVE + ATWOOD ST',36,28X,OUTBOUND,2023-12-15,10:38,10:58,10:51
10717,2023-12-15T10:58,'FIFTH AVE + MOREWOOD AVE',1177,71B,OUTBOUND,2023-12-15,10:31,10:59,10:51
2093,2023-12-15T11:00,'FIFTH  AVE + ATWOOD ST',36,54,OUTBOUND,2023-12-15,10:11,11:00,10:58
7430,2023-12-15T11:00,'FORBES + MURRAY FS',7096,61C,INBOUND,2023-12-15,10:10,11:01,10:50
9026,2023-12-15T11:01,'HIGHLAND AVE + BAUM',19383,71B,INBOUND,2023-12-15,10:51,11:02,10:59
6490,2023-12-15T11:02,'FORBES AVE + MURRAY AVE',7126,61A,OUTBOUND,2023-12-15,10:36,11:02,10:59
6000,2023-12-15T11:02,'FORBES AVE + MOREWOOD AVE FS (CARNEGIE MELLON)',4407,61B,INBOUND,2023-12-15,10:30,11:03,11:01
11634,2023-12-15T11:02,'FORBES AVE + MOREWOOD AVE FS (CARNEGIE MELLON)',4407,69,INBOUND,2023-12-15,09:48,11:03,10:58
9399,2023-12-15T11:02,'FIFTH  AVE + ATWOOD ST',36,71D,OUTBOUND,2023-12-15,11:07,11:07,16:45
9531,2023-12-15T11:03,'FIFTH AVE + OAKLAND AVE',2565,75,OUTBOUND,2023-12-15,10:52,11:03,11:01
9396,2023-12-15T11:03,'FIFTH AVE + MOREWOOD AVE',1177,71D,OUTBOUND,2023-12-15,10:47,11:04,10:58
5999,2023-12-15T11:03,'FORBES + MURRAY FS',7096,61A,INBOUND,2023-12-15,10:27,11:05,11:06
7430,2023-12-15T11:05,'FORBES AVE + MOREWOOD AVE FS (CARNEGIE MELLON)',4407,61C,INBOUND,2023-12-15,10:10,11:07,10:56
10717,2023-12-15T11:06,'HIGHLAND AVE + PENN',3268,71B,OUTBOUND,2023-12-15,10:31,11:07,11:00
9398,2023-12-15T11:05,'FIFTH AVE + OAKLAND AVE',2565,71C,OUTBOUND,2023-12-15,11:02,11:07,11:07
11634,2023-12-15T11:08,'FIFTH  AVE + ATWOOD ST',36,69,INBOUND,2023-12-15,09:48,11:08,11:04
5999,2023-12-15T11:09,'FORBES AVE + MOREWOOD AVE FS (CARNEGIE MELLON)',4407,61A,INBOUND,2023-12-15,10:27,11:10,11:11
9399,2023-12-15T11:11,'FIFTH AVE + OAKLAND AVE',2565,71D,OUTBOUND,2023-12-15,11:07,11:12,11:12
9026,2023-12-15T11:11,'FIFTH AVE + MOREWOOD AVE',1167,71B,INBOUND,2023-12-15,10:51,11:12,11:08
9400,2023-12-15T11:11,'FIFTH  AVE + ATWOOD ST',36,71A,OUTBOUND,2023-12-15,11:12,11:12,12:27
6000,2023-12-15T11:11,'FIFTH  AVE + ATWOOD ST',36,61B,INBOUND,2023-12-15,10:30,11:13,11:10
7430,2023-12-15T11:12,'FIFTH  AVE + ATWOOD ST',36,61C,INBOUND,2023-12-15,10:10,11:14,11:05
5931,2023-12-15T11:13,'FORBES AVE + MOREWOOD (CARNEGIE MELLON)',7117,61D,OUTBOUND,2023-12-15,10:57,11:14,11:12
9135,2023-12-15T11:14,'FORBES AVE + MOREWOOD (CARNEGIE MELLON)',7117,67,OUTBOUND,2023-12-15,10:50,11:14,11:04
10424,2023-12-15T11:14,'FIFTH  AVE + ATWOOD ST',36,P3,INBOUND,2023-12-15,10:49,11:15,11:11
9626,2023-12-15T11:14,'FORBES AVE + MOREWOOD AVE FS (CARNEGIE MELLON)',4407,28X,OUTBOUND,2023-12-15,11:08,11:15,11:17
6002,2023-12-15T11:15,'FORBES + MURRAY FS',7096,61B,INBOUND,2023-12-15,10:48,11:17,11:16
2094,2023-12-15T11:16,'FIFTH  AVE + ATWOOD ST',36,54,OUTBOUND,2023-12-15,10:29,11:17,11:16
9399,2023-12-15T11:16,'FIFTH AVE + MOREWOOD AVE',1177,71D,OUTBOUND,2023-12-15,11:07,11:18,11:17
7431,2023-12-15T11:17,'FORBES + MURRAY FS',7096,61C,INBOUND,2023-12-15,10:30,11:17,11:10
1187,2023-12-15T11:17,'FIFTH AVE + OAKLAND AVE',2565,54,INBOUND,2023-12-15,10:47,11:18,11:19
5999,2023-12-15T11:16,'FIFTH  AVE + ATWOOD ST',36,61A,INBOUND,2023-12-15,10:27,11:18,11:20
9400,2023-12-15T11:18,'FIFTH AVE + OAKLAND AVE',2565,71A,OUTBOUND,2023-12-15,11:12,11:19,11:18
5932,2023-12-15T11:19,'FIFTH  AVE + ATWOOD ST',36,61D,OUTBOUND,2023-12-15,11:17,11:20,11:54
9026,2023-12-15T11:19,'FIFTH  AVE + ATWOOD ST',36,71B,INBOUND,2023-12-15,10:51,11:20,11:15
9028,2023-12-15T11:19,'HIGHLAND AVE + BAUM',19383,71B,INBOUND,2023-12-15,11:11,11:20,11:19
11202,2023-12-15T11:19,'FORBES AVE + MOREWOOD AVE FS (CARNEGIE MELLON)',4407,58,INBOUND,2023-12-15,11:20,11:20,10:30
5931,2023-12-15T11:20,'FORBES AVE + MURRAY AVE',7126,61D,OUTBOUND,2023-12-15,10:57,11:20,11:17
6002,2023-12-15T11:20,'FORBES AVE + MOREWOOD AVE FS (CARNEGIE MELLON)',4407,61B,INBOUND,2023-12-15,10:48,11:21,11:21
10869,2023-12-15T11:20,'FIFTH AVE + MOREWOOD AVE',1167,71D,INBOUND,2023-12-15,10:58,11:21,11:20
10670,2023-12-15T11:21,'FIFTH AVE + OAKLAND AVE',2565,P3,OUTBOUND,2023-12-15,11:15,11:22,11:19
10719,2023-12-15T11:22,'FIFTH AVE + OAKLAND AVE',2565,71B,OUTBOUND,2023-12-15,11:11,11:23,11:26
7563,2023-12-15T11:22,'FIFTH AVE + OAKLAND AVE',2565,93,OUTBOUND,2023-12-15,10:35,11:23,11:11
7431,2023-12-15T11:22,'FORBES AVE + MOREWOOD AVE FS (CARNEGIE MELLON)',4407,61C,INBOUND,2023-12-15,10:30,11:24,11:16
6492,2023-12-15T11:23,'FORBES AVE + MOREWOOD (CARNEGIE MELLON)',7117,61B,OUTBOUND,2023-12-15,10:46,11:24,11:03
9401,2023-12-15T11:23,'FIFTH  AVE + ATWOOD ST',36,71C,OUTBOUND,2023-12-15,11:22,11:24,21:33
9626,2023-12-15T11:23,'FIFTH  AVE + ATWOOD ST',36,28X,OUTBOUND,2023-12-15,11:08,11:24,11:21
6494,2023-12-15T11:24,'FORBES AVE + MOREWOOD (CARNEGIE MELLON)',7117,61C,OUTBOUND,2023-12-15,11:03,11:24,11:20
6491,2023-12-15T11:24,'FORBES AVE + MOREWOOD (CARNEGIE MELLON)',7117,61C,OUTBOUND,2023-12-15,10:43,11:24,11:00
6493,2023-12-15T11:24,'FORBES AVE + MOREWOOD (CARNEGIE MELLON)',7117,61A,OUTBOUND,2023-12-15,10:56,11:24,11:13
8852,2023-12-15T11:24,'FIFTH  AVE + ATWOOD ST',36,75,INBOUND,2023-12-15,10:33,11:25,11:20
6001,2023-12-15T11:24,'FORBES + MURRAY FS',7096,61A,INBOUND,2023-12-15,10:47,11:26,11:26
9402,2023-12-15T11:25,'FIFTH  AVE + ATWOOD ST',36,71D,OUTBOUND,2023-12-15,11:27,11:27,17:49
6494,2023-12-15T11:27,'FORBES AVE + MURRAY AVE',7126,61C,OUTBOUND,2023-12-15,11:03,11:28,11:27
6492,2023-12-15T11:28,'FORBES AVE + MURRAY AVE',7126,61B,OUTBOUND,2023-12-15,10:46,11:28,11:09
6493,2023-12-15T11:28,'FORBES AVE + MURRAY AVE',7126,61A,OUTBOUND,2023-12-15,10:56,11:28,11:19
6491,2023-12-15T11:28,'FORBES AVE + MURRAY AVE',7126,61C,OUTBOUND,2023-12-15,10:43,11:29,11:07
6495,2023-12-15T11:29,'FORBES AVE + MOREWOOD (CARNEGIE MELLON)',7117,61B,OUTBOUND,2023-12-15,11:06,11:29,11:23
6002,2023-12-15T11:29,'FIFTH  AVE + ATWOOD ST',36,61B,INBOUND,2023-12-15,10:48,11:29,11:30
9532,2023-12-15T11:29,'FIFTH AVE + OAKLAND AVE',2565,75,OUTBOUND,2023-12-15,11:17,11:30,11:27
6001,2023-12-15T11:29,'FORBES AVE + MOREWOOD AVE FS (CARNEGIE MELLON)',4407,61A,INBOUND,2023-12-15,10:47,11:30,11:31
10719,2023-12-15T11:30,'FIFTH AVE + MOREWOOD AVE',1177,71B,OUTBOUND,2023-12-15,11:11,11:30,11:31
5932,2023-12-15T11:30,'FORBES AVE + MOREWOOD (CARNEGIE MELLON)',7117,61D,OUTBOUND,2023-12-15,11:17,11:31,11:32
7431,2023-12-15T11:30,'FIFTH  AVE + ATWOOD ST',36,61C,INBOUND,2023-12-15,10:30,11:32,11:25
9401,2023-12-15T11:31,'FIFTH AVE + OAKLAND AVE',2565,71C,OUTBOUND,2023-12-15,11:22,11:32,11:27
9402,2023-12-15T11:31,'FIFTH AVE + OAKLAND AVE',2565,71D,OUTBOUND,2023-12-15,11:27,11:32,11:33
9028,2023-12-15T11:31,'FIFTH AVE + MOREWOOD AVE',1167,71B,INBOUND,2023-12-15,11:11,11:32,11:28
9403,2023-12-15T11:32,'FIFTH  AVE + ATWOOD ST',36,71A,OUTBOUND,2023-12-15,11:32,11:33,11:37
6495,2023-12-15T11:33,'FORBES AVE + MURRAY AVE',7126,61B,OUTBOUND,2023-12-15,11:06,11:34,11:29
5932,2023-12-15T11:34,'FORBES AVE + MURRAY AVE',7126,61D,OUTBOUND,2023-12-15,11:17,11:35,11:37
9205,2023-12-15T11:34,'FORBES AVE + MOREWOOD AVE FS (CARNEGIE MELLON)',4407,67,INBOUND,2023-12-15,10:29,11:35,11:38
1902,2023-12-15T11:35,'FIFTH AVE + OAKLAND AVE',2565,54,INBOUND,2023-12-15,11:07,11:36,11:34
6001,2023-12-15T11:36,'FIFTH  AVE + ATWOOD ST',36,61A,INBOUND,2023-12-15,10:47,11:37,11:40
10719,2023-12-15T11:37,'HIGHLAND AVE + PENN',3268,71B,OUTBOUND,2023-12-15,11:11,11:38,11:42
5933,2023-12-15T11:37,'FIFTH  AVE + ATWOOD ST',36,61D,OUTBOUND,2023-12-15,11:37,11:38,19:57
6004,2023-12-15T11:38,'FORBES + MURRAY FS',7096,61B,INBOUND,2023-12-15,11:08,11:38,11:36
9403,2023-12-15T11:39,'FIFTH AVE + OAKLAND AVE',2565,71A,OUTBOUND,2023-12-15,11:32,11:40,11:39
9028,2023-12-15T11:39,'FIFTH  AVE + ATWOOD ST',36,71B,INBOUND,2023-12-15,11:11,11:40,11:35
10872,2023-12-15T11:40,'FIFTH AVE + MOREWOOD AVE',1167,71D,INBOUND,2023-12-15,11:18,11:41,11:40
9402,2023-12-15T11:40,'FIFTH AVE + MOREWOOD AVE',1177,71D,OUTBOUND,2023-12-15,11:27,11:41,11:38
6496,2023-12-15T11:40,'FORBES AVE + MOREWOOD (CARNEGIE MELLON)',7117,61A,OUTBOUND,2023-12-15,11:16,11:41,11:32
9404,2023-12-15T11:40,'FIFTH  AVE + ATWOOD ST',36,71C,OUTBOUND,2023-12-15,11:42,11:42,11:50
9137,2023-12-15T11:42,'FORBES AVE + MOREWOOD (CARNEGIE MELLON)',7117,69,OUTBOUND,2023-12-15,11:25,11:43,11:40
7432,2023-12-15T11:42,'FORBES + MURRAY FS',7096,61C,INBOUND,2023-12-15,10:49,11:43,11:30
9205,2023-12-15T11:43,'FIFTH  AVE + ATWOOD ST',36,67,INBOUND,2023-12-15,10:29,11:43,11:44
10430,2023-12-15T11:44,'FIFTH  AVE + ATWOOD ST',36,P3,INBOUND,2023-12-15,11:19,11:45,11:41
6004,2023-12-15T11:44,'FORBES AVE + MOREWOOD AVE FS (CARNEGIE MELLON)',4407,61B,INBOUND,2023-12-15,11:08,11:45,11:41
6496,2023-12-15T11:44,'FORBES AVE + MURRAY AVE',7126,61A,OUTBOUND,2023-12-15,11:16,11:46,11:37
8853,2023-12-15T11:44,'FIFTH  AVE + ATWOOD ST',36,75,INBOUND,2023-12-15,10:58,11:46,11:45
7565,2023-12-15T11:45,'FIFTH AVE + OAKLAND AVE',2565,93,OUTBOUND,2023-12-15,11:05,11:46,11:41
9404,2023-12-15T11:46,'FIFTH AVE + OAKLAND AVE',2565,71C,OUTBOUND,2023-12-15,11:42,11:47,11:47
6003,2023-12-15T11:46,'FORBES + MURRAY FS',7096,61A,INBOUND,2023-12-15,11:07,11:47,11:46
9628,2023-12-15T11:47,'FORBES AVE + MOREWOOD AVE FS (CARNEGIE MELLON)',4407,28X,OUTBOUND,2023-12-15,11:38,11:48,11:47
7432,2023-12-15T11:47,'FORBES AVE + MOREWOOD AVE FS (CARNEGIE MELLON)',4407,61C,INBOUND,2023-12-15,10:49,11:48,11:36
9405,2023-12-15T11:48,'FIFTH  AVE + ATWOOD ST',36,71D,OUTBOUND,2023-12-15,11:47,11:49,21:58
9271,2023-12-15T11:48,'FIFTH AVE + MOREWOOD AVE',1177,58,OUTBOUND,2023-12-15,11:00,11:49,11:42
2095,2023-12-15T11:50,'FIFTH  AVE + ATWOOD ST',36,54,OUTBOUND,2023-12-15,10:57,11:51,11:47
11637,2023-12-15T11:50,'FORBES AVE + MOREWOOD AVE FS (CARNEGIE MELLON)',4407,69,INBOUND,2023-12-15,10:43,11:51,11:53
6787,2023-12-15T11:50,'FORBES + MURRAY FS',7096,61D,INBOUND,2023-12-15,11:16,11:51,11:44
10671,2023-12-15T11:51,'FIFTH AVE + OAKLAND AVE',2565,P3,OUTBOUND,2023-12-15,11:45,11:52,11:49
6003,2023-12-15T11:51,'FORBES AVE + MOREWOOD AVE FS (CARNEGIE MELLON)',4407,61A,INBOUND,2023-12-15,11:07,11:52,11:51
5933,2023-12-15T11:51,'FORBES AVE + MOREWOOD (CARNEGIE MELLON)',7117,61D,OUTBOUND,2023-12-15,11:37,11:52,11:49
6006,2023-12-15T11:42,'FORBES + MURRAY FS',7096,61B,INBOUND,2023-12-15,11:28,11:56,11:56
6006,2023-12-15T11:42,'FORBES AVE + MOREWOOD AVE FS (CARNEGIE MELLON)',4407,61B,INBOUND,2023-12-15,11:28,12:02,12:01
6006,2023-12-15T11:42,'FIFTH  AVE + ATWOOD ST',36,61B,INBOUND,2023-12-15,11:28,12:10,12:10
9030,2023-12-15T11:52,'HIGHLAND AVE + BAUM',19383,71B,INBOUND,2023-12-15,11:31,11:53,11:39
6004,2023-12-15T11:52,'FIFTH  AVE + ATWOOD ST',36,61B,INBOUND,2023-12-15,11:08,11:54,11:50
6498,2023-12-15T11:53,'FORBES AVE + MOREWOOD (CARNEGIE MELLON)',7117,61B,OUTBOUND,2023-12-15,11:26,11:53,11:43
9406,2023-12-15T11:53,'FIFTH  AVE + ATWOOD ST',36,71A,OUTBOUND,2023-12-15,11:52,11:54,14:22
10720,2023-12-15T11:53,'FIFTH AVE + OAKLAND AVE',2565,71B,OUTBOUND,2023-12-15,11:31,11:54,11:46
6497,2023-12-15T11:54,'FORBES AVE + MOREWOOD (CARNEGIE MELLON)',7117,61C,OUTBOUND,2023-12-15,11:23,11:55,11:40
9628,2023-12-15T11:54,'FIFTH  AVE + ATWOOD ST',36,28X,OUTBOUND,2023-12-15,11:38,11:55,11:51
9405,2023-12-15T11:55,'FIFTH AVE + OAKLAND AVE',2565,71D,OUTBOUND,2023-12-15,11:47,11:56,11:52
9533,2023-12-15T11:55,'FIFTH AVE + OAKLAND AVE',2565,75,OUTBOUND,2023-12-15,11:42,11:56,11:52
7432,2023-12-15T11:55,'FIFTH  AVE + ATWOOD ST',36,61C,INBOUND,2023-12-15,10:49,11:56,11:45
6787,2023-12-15T11:55,'FORBES AVE + MOREWOOD AVE FS (CARNEGIE MELLON)',4407,61D,INBOUND,2023-12-15,11:16,11:57,11:50
11637,2023-12-15T11:55,'FIFTH  AVE + ATWOOD ST',36,69,INBOUND,2023-12-15,10:43,11:57,11:59
5933,2023-12-15T11:58,'FORBES AVE + MURRAY AVE',7126,61D,OUTBOUND,2023-12-15,11:37,11:59,11:55
7433,2023-12-15T11:59,'FORBES + MURRAY FS',7096,61C,INBOUND,2023-12-15,11:09,11:59,11:50
6497,2023-12-15T11:59,'FORBES AVE + MURRAY AVE',7126,61C,OUTBOUND,2023-12-15,11:23,12:00,11:47
6498,2023-12-15T11:59,'FORBES AVE + MURRAY AVE',7126,61B,OUTBOUND,2023-12-15,11:26,12:00,11:49
9406,2023-12-15T12:00,'FIFTH AVE + OAKLAND AVE',2565,71A,OUTBOUND,2023-12-15,11:52,12:01,11:59
6499,2023-12-15T12:01,'FORBES AVE + MOREWOOD (CARNEGIE MELLON)',7117,61A,OUTBOUND,2023-12-15,11:36,12:02,11:53
10876,2023-12-15T12:01,'FIFTH AVE + MOREWOOD AVE',1167,71D,INBOUND,2023-12-15,11:38,12:02,12:00
6003,2023-12-15T12:01,'FIFTH  AVE + ATWOOD ST',36,61A,INBOUND,2023-12-15,11:07,12:03,12:00
5934,2023-12-15T12:02,'FIFTH  AVE + ATWOOD ST',36,61D,OUTBOUND,2023-12-15,11:57,12:03,19:52
9405,2023-12-15T12:03,'FIFTH AVE + MOREWOOD AVE',1177,71D,OUTBOUND,2023-12-15,11:47,12:04,11:57
10720,2023-12-15T12:03,'FIFTH AVE + MOREWOOD AVE',1177,71B,OUTBOUND,2023-12-15,11:31,12:04,11:51
9030,2023-12-15T12:04,'FIFTH AVE + MOREWOOD AVE',1167,71B,INBOUND,2023-12-15,11:31,12:05,11:48
7433,2023-12-15T12:04,'FORBES AVE + MOREWOOD AVE FS (CARNEGIE MELLON)',4407,61C,INBOUND,2023-12-15,11:09,12:05,11:56
9407,2023-12-15T12:05,'FIFTH  AVE + ATWOOD ST',36,71C,OUTBOUND,2023-12-15,12:02,12:06,20:26
6005,2023-12-15T12:07,'FORBES + MURRAY FS',7096,61A,INBOUND,2023-12-15,11:27,12:07,12:07
6499,2023-12-15T12:06,'FORBES AVE + MURRAY AVE',7126,61A,OUTBOUND,2023-12-15,11:36,12:07,11:59
6790,2023-12-15T12:08,'FORBES + MURRAY FS',7096,61D,INBOUND,2023-12-15,11:36,12:09,12:04
9208,2023-12-15T12:10,'FORBES AVE + MOREWOOD AVE FS (CARNEGIE MELLON)',4407,67,INBOUND,2023-12-15,11:03,12:11,12:12
6005,2023-12-15T12:11,'FORBES AVE + MOREWOOD AVE FS (CARNEGIE MELLON)',4407,61A,INBOUND,2023-12-15,11:27,12:12,12:13
10436,2023-12-15T12:12,'FIFTH  AVE + ATWOOD ST',36,P3,INBOUND,2023-12-15,11:49,12:12,12:11
1189,2023-12-15T12:11,'FIFTH AVE + OAKLAND AVE',2565,54,INBOUND,2023-12-15,11:31,12:12,12:03
9408,2023-12-15T12:11,'FIFTH  AVE + ATWOOD ST',36,71D,OUTBOUND,2023-12-15,12:07,12:12,17:26
9407,2023-12-15T12:12,'FIFTH AVE + OAKLAND AVE',2565,71C,OUTBOUND,2023-12-15,12:02,12:13,12:08
9030,2023-12-15T12:14,'FIFTH  AVE + ATWOOD ST',36,71B,INBOUND,2023-12-15,11:31,12:14,11:55
10720,2023-12-15T12:13,'HIGHLAND AVE + PENN',3268,71B,OUTBOUND,2023-12-15,11:31,12:14,12:02
6790,2023-12-15T12:13,'FORBES AVE + MOREWOOD AVE FS (CARNEGIE MELLON)',4407,61D,INBOUND,2023-12-15,11:36,12:14,12:10
6502,2023-12-15T12:14,'FORBES AVE + MOREWOOD (CARNEGIE MELLON)',7117,61A,OUTBOUND,2023-12-15,11:56,12:15,12:13
7433,2023-12-15T12:15,'FIFTH  AVE + ATWOOD ST',36,61C,INBOUND,2023-12-15,11:09,12:15,12:05
6008,2023-12-15T12:14,'FORBES + MURRAY FS',7096,61B,INBOUND,2023-12-15,11:48,12:15,12:16
10721,2023-12-15T12:16,'FIFTH AVE + OAKLAND AVE',2565,71B,OUTBOUND,2023-12-15,11:52,12:16,12:07
5934,2023-12-15T12:15,'FORBES AVE + MOREWOOD (CARNEGIE MELLON)',7117,61D,OUTBOUND,2023-12-15,11:57,12:16,12:12
2096,2023-12-15T12:15,'FIFTH  AVE + ATWOOD ST',36,54,OUTBOUND,2023-12-15,11:19,12:16,12:06
8854,2023-12-15T12:16,'FIFTH  AVE + ATWOOD ST',36,75,INBOUND,2023-12-15,11:22,12:16,12:09
9138,2023-12-15T12:17,'FORBES AVE + MOREWOOD (CARNEGIE MELLON)',7117,67,OUTBOUND,2023-12-15,12:00,12:17,12:12
10879,2023-12-15T12:19,'FIFTH AVE + MOREWOOD AVE',1167,71D,INBOUND,2023-12-15,11:58,12:19,12:20
9629,2023-12-15T12:18,'FORBES AVE + MOREWOOD AVE FS (CARNEGIE MELLON)',4407,28X,OUTBOUND,2023-12-15,12:03,12:19,12:12
9034,2023-12-15T12:18,'HIGHLAND AVE + BAUM',19383,71B,INBOUND,2023-12-15,12:11,12:19,12:19
6502,2023-12-15T12:18,'FORBES AVE + MURRAY AVE',7126,61A,OUTBOUND,2023-12-15,11:56,12:20,12:19
9208,2023-12-15T12:19,'FIFTH  AVE + ATWOOD ST',36,67,INBOUND,2023-12-15,11:03,12:20,12:18
9408,2023-12-15T12:19,'FIFTH AVE + OAKLAND AVE',2565,71D,OUTBOUND,2023-12-15,12:07,12:20,12:12
6005,2023-12-15T12:19,'FIFTH  AVE + ATWOOD ST',36,61A,INBOUND,2023-12-15,11:27,12:21,12:20
5934,2023-12-15T12:20,'FORBES AVE + MURRAY AVE',7126,61D,OUTBOUND,2023-12-15,11:57,12:21,12:18
6501,2023-12-15T12:20,'FORBES AVE + MOREWOOD (CARNEGIE MELLON)',7117,61B,OUTBOUND,2023-12-15,11:47,12:21,12:06
6500,2023-12-15T12:20,'FORBES AVE + MOREWOOD (CARNEGIE MELLON)',7117,61C,OUTBOUND,2023-12-15,11:43,12:21,12:00
10672,2023-12-15T12:21,'FIFTH AVE + OAKLAND AVE',2565,P3,OUTBOUND,2023-12-15,12:15,12:21,12:19
11203,2023-12-15T12:21,'FORBES AVE + MOREWOOD AVE FS (CARNEGIE MELLON)',4407,58,INBOUND,2023-12-15,12:20,12:21,18:01
6008,2023-12-15T12:20,'FORBES AVE + MOREWOOD AVE FS (CARNEGIE MELLON)',4407,61B,INBOUND,2023-12-15,11:48,12:21,12:21
5935,2023-12-15T12:21,'FIFTH  AVE + ATWOOD ST',36,61D,OUTBOUND,2023-12-15,12:17,12:22,19:22
6007,2023-12-15T12:24,'FORBES + MURRAY FS',7096,61A,INBOUND,2023-12-15,11:47,12:24,12:27
10721,2023-12-15T12:24,'FIFTH AVE + MOREWOOD AVE',1177,71B,OUTBOUND,2023-12-15,11:52,12:25,12:12
9411,2023-12-15T12:24,'FIFTH  AVE + ATWOOD ST',36,71D,OUTBOUND,2023-12-15,12:27,12:27,04:48
6500,2023-12-15T12:26,'FORBES AVE + MURRAY AVE',7126,61C,OUTBOUND,2023-12-15,11:43,12:27,12:07
6501,2023-12-15T12:27,'FORBES AVE + MURRAY AVE',7126,61B,OUTBOUND,2023-12-15,11:47,12:27,12:12
9410,2023-12-15T12:27,'FIFTH  AVE + ATWOOD ST',36,71C,OUTBOUND,2023-12-15,12:22,12:27,05:56
9408,2023-12-15T12:27,'FIFTH AVE + MOREWOOD AVE',1177,71D,OUTBOUND,2023-12-15,12:07,12:27,12:18
6007,2023-12-15T12:27,'FORBES AVE + MOREWOOD AVE FS (CARNEGIE MELLON)',4407,61A,INBOUND,2023-12-15,11:47,12:28,12:33
1904,2023-12-15T12:28,'FIFTH AVE + OAKLAND AVE',2565,54,INBOUND,2023-12-15,11:57,12:28,12:24
9629,2023-12-15T12:29,'FIFTH  AVE + ATWOOD ST',36,28X,OUTBOUND,2023-12-15,12:03,12:29,12:16
9034,2023-12-15T12:29,'FIFTH AVE + MOREWOOD AVE',1167,71B,INBOUND,2023-12-15,12:11,12:29,12:28
6008,2023-12-15T12:29,'FIFTH  AVE + ATWOOD ST',36,61B,INBOUND,2023-12-15,11:48,12:30,12:30
9411,2023-12-15T12:32,'FIFTH AVE + OAKLAND AVE',2565,71D,OUTBOUND,2023-12-15,12:27,12:32,12:32
9410,2023-12-15T12:31,'FIFTH AVE + OAKLAND AVE',2565,71C,OUTBOUND,2023-12-15,12:22,12:32,12:27
9037,2023-12-15T12:33,'HIGHLAND AVE + BAUM',19383,71B,INBOUND,2023-12-15,12:31,12:33,12:39
5935,2023-12-15T12:32,'FORBES AVE + MOREWOOD (CARNEGIE MELLON)',7117,61D,OUTBOUND,2023-12-15,12:17,12:33,12:29
6010,2023-12-15T12:34,'FORBES + MURRAY FS',7096,61B,INBOUND,2023-12-15,12:08,12:35,12:36
6504,2023-12-15T12:33,'FORBES AVE + MOREWOOD (CARNEGIE MELLON)',7117,61B,OUTBOUND,2023-12-15,12:07,12:35,12:26
6503,2023-12-15T12:35,'FORBES AVE + MOREWOOD (CARNEGIE MELLON)',7117,61C,OUTBOUND,2023-12-15,12:03,12:36,12:20
7434,2023-12-15T12:35,'FORBES + MURRAY FS',7096,61C,INBOUND,2023-12-15,11:29,12:36,12:10
9412,2023-12-15T12:36,'FIFTH  AVE + ATWOOD ST',36,71A,OUTBOUND,2023-12-15,12:32,12:36,15:44
10721,2023-12-15T12:36,'HIGHLAND AVE + PENN',3268,71B,OUTBOUND,2023-12-15,11:52,12:36,12:23
6007,2023-12-15T12:36,'FIFTH  AVE + ATWOOD ST',36,61A,INBOUND,2023-12-15,11:47,12:36,12:40
9034,2023-12-15T12:35,'FIFTH  AVE + ATWOOD ST',36,71B,INBOUND,2023-12-15,12:11,12:37,12:35
9412,2023-12-15T12:36,'FIFTH AVE + OAKLAND AVE',2565,71A,OUTBOUND,2023-12-15,12:32,12:42,12:38
2097,2023-12-15T12:37,'FIFTH  AVE + ATWOOD ST',36,54,OUTBOUND,2023-12-15,11:47,12:37,12:37
5935,2023-12-15T12:37,'FORBES AVE + MURRAY AVE',7126,61D,OUTBOUND,2023-12-15,12:17,12:38,12:35
9411,2023-12-15T12:38,'FIFTH AVE + MOREWOOD AVE',1177,71D,OUTBOUND,2023-12-15,12:27,12:38,12:38
11640,2023-12-15T12:38,'FORBES AVE + MOREWOOD AVE FS (CARNEGIE MELLON)',4407,69,INBOUND,2023-12-15,11:29,12:38,12:41
6504,2023-12-15T12:38,'FORBES AVE + MURRAY AVE',7126,61B,OUTBOUND,2023-12-15,12:07,12:39,12:32
8855,2023-12-15T12:39,'FIFTH  AVE + ATWOOD ST',36,75,INBOUND,2023-12-15,11:47,12:39,12:34
10883,2023-12-15T12:39,'FIFTH AVE + MOREWOOD AVE',1167,71D,INBOUND,2023-12-15,12:18,12:40,12:40
6791,2023-12-15T12:39,'FORBES + MURRAY FS',7096,61D,INBOUND,2023-12-15,11:56,12:40,12:24
6010,2023-12-15T12:39,'FORBES AVE + MOREWOOD AVE FS (CARNEGIE MELLON)',4407,61B,INBOUND,2023-12-15,12:08,12:40,12:41
6503,2023-12-15T12:40,'FORBES AVE + MURRAY AVE',7126,61C,OUTBOUND,2023-12-15,12:03,12:41,12:27
7435,2023-12-15T12:41,'FORBES + MURRAY FS',7096,61C,INBOUND,2023-12-15,11:48,12:41,12:30
9037,2023-12-15T12:41,'FIFTH AVE + MOREWOOD AVE',1167,71B,INBOUND,2023-12-15,12:31,12:42,12:48
7434,2023-12-15T12:43,'FORBES AVE + MOREWOOD AVE FS (CARNEGIE MELLON)',4407,61C,INBOUND,2023-12-15,11:29,12:43,12:16
10443,2023-12-15T12:44,'FIFTH  AVE + ATWOOD ST',36,P3,INBOUND,2023-12-15,12:19,12:44,12:41
6009,2023-12-15T12:44,'FORBES + MURRAY FS',7096,61A,INBOUND,2023-12-15,12:07,12:44,12:47
9139,2023-12-15T12:45,'FORBES AVE + MOREWOOD (CARNEGIE MELLON)',7117,69,OUTBOUND,2023-12-15,12:20,12:45,12:35
6791,2023-12-15T12:45,'FORBES AVE + MOREWOOD AVE FS (CARNEGIE MELLON)',4407,61D,INBOUND,2023-12-15,11:56,12:46,12:30
9211,2023-12-15T12:45,'FORBES AVE + MOREWOOD AVE FS (CARNEGIE MELLON)',4407,67,INBOUND,2023-12-15,11:38,12:46,12:47
9413,2023-12-15T12:41,'FIFTH  AVE + ATWOOD ST',36,71C,OUTBOUND,2023-12-15,12:42,12:46,12:57
9414,2023-12-15T12:46,'FIFTH  AVE + ATWOOD ST',36,71D,OUTBOUND,2023-12-15,12:47,12:47,15:00
11640,2023-12-15T12:45,'FIFTH  AVE + ATWOOD ST',36,69,INBOUND,2023-12-15,11:29,12:47,12:48
9413,2023-12-15T12:41,'FIFTH AVE + OAKLAND AVE',2565,71C,OUTBOUND,2023-12-15,12:42,12:52,12:48
7435,2023-12-15T12:47,'FORBES AVE + MOREWOOD AVE FS (CARNEGIE MELLON)',4407,61C,INBOUND,2023-12-15,11:48,12:47,12:36
9535,2023-12-15T12:47,'FIFTH AVE + OAKLAND AVE',2565,75,OUTBOUND,2023-12-15,12:32,12:47,12:42
6010,2023-12-15T12:48,'FIFTH  AVE + ATWOOD ST',36,61B,INBOUND,2023-12-15,12:08,12:49,12:50
6009,2023-12-15T12:49,'FORBES AVE + MOREWOOD AVE FS (CARNEGIE MELLON)',4407,61A,INBOUND,2023-12-15,12:07,12:49,12:53
9037,2023-12-15T12:49,'FIFTH  AVE + ATWOOD ST',36,71B,INBOUND,2023-12-15,12:31,12:50,12:55
9140,2023-12-15T12:50,'FORBES AVE + MOREWOOD (CARNEGIE MELLON)',7117,67,OUTBOUND,2023-12-15,12:35,12:50,12:49
6505,2023-12-15T12:49,'FORBES AVE + MOREWOOD (CARNEGIE MELLON)',7117,61A,OUTBOUND,2023-12-15,12:18,12:51,12:35
9272,2023-12-15T12:50,'FIFTH AVE + MOREWOOD AVE',1177,58,OUTBOUND,2023-12-15,12:00,12:52,12:42
10722,2023-12-15T12:50,'FIFTH AVE + OAKLAND AVE',2565,71B,OUTBOUND,2023-12-15,12:12,12:56,12:27
10722,2023-12-15T12:50,'FIFTH AVE + MOREWOOD AVE',1177,71B,OUTBOUND,2023-12-15,12:12,13:02,12:32
10722,2023-12-15T12:50,'HIGHLAND AVE + PENN',3268,71B,OUTBOUND,2023-12-15,12:12,13:12,12:43
7434,2023-12-15T12:51,'FIFTH  AVE + ATWOOD ST',36,61C,INBOUND,2023-12-15,11:29,12:52,12:25
9414,2023-12-15T12:52,'FIFTH AVE + OAKLAND AVE',2565,71D,OUTBOUND,2023-12-15,12:47,12:52,12:52
5936,2023-12-15T12:50,'FIFTH  AVE + ATWOOD ST',36,61D,OUTBOUND,2023-12-15,12:37,12:52,15:40
10673,2023-12-15T12:52,'FIFTH AVE + OAKLAND AVE',2565,P3,OUTBOUND,2023-12-15,12:45,12:53,12:49
9211,2023-12-15T12:53,'FIFTH  AVE + ATWOOD ST',36,67,INBOUND,2023-12-15,11:38,12:54,12:53
7436,2023-12-15T12:53,'FORBES + MURRAY FS',7096,61C,INBOUND,2023-12-15,12:08,12:54,12:50
7435,2023-12-15T12:56,'FIFTH  AVE + ATWOOD ST',36,61C,INBOUND,2023-12-15,11:48,12:56,12:45
9415,2023-12-15T12:56,'FIFTH  AVE + ATWOOD ST',36,71A,OUTBOUND,2023-12-15,12:52,12:57,14:32
6505,2023-12-15T12:56,'FORBES AVE + MURRAY AVE',7126,61A,OUTBOUND,2023-12-15,12:18,12:57,12:41
1858,2023-12-15T12:57,'FIFTH AVE + OAKLAND AVE',2565,54,INBOUND,2023-12-15,12:27,12:57,12:48
6009,2023-12-15T12:58,'FIFTH  AVE + ATWOOD ST',36,61A,INBOUND,2023-12-15,12:07,12:58,13:00
7436,2023-12-15T12:57,'FORBES AVE + MOREWOOD AVE FS (CARNEGIE MELLON)',4407,61C,INBOUND,2023-12-15,12:08,12:59,12:56
6794,2023-12-15T12:59,'FORBES + MURRAY FS',7096,61D,INBOUND,2023-12-15,12:16,12:59,12:44
10886,2023-12-15T13:00,'FIFTH AVE + MOREWOOD AVE',1167,71D,INBOUND,2023-12-15,12:38,13:01,13:00
9414,2023-12-15T13:00,'FIFTH AVE + MOREWOOD AVE',1177,71D,OUTBOUND,2023-12-15,12:47,13:01,12:58
7569,2023-12-15T13:01,'FIFTH AVE + OAKLAND AVE',2565,93,OUTBOUND,2023-12-15,12:03,13:02,12:39
9039,2023-12-15T13:02,'HIGHLAND AVE + BAUM',19383,71B,INBOUND,2023-12-15,12:51,13:03,12:59
2098,2023-12-15T13:02,'FIFTH  AVE + ATWOOD ST',36,54,OUTBOUND,2023-12-15,12:07,13:03,12:56
8856,2023-12-15T13:00,'FIFTH  AVE + ATWOOD ST',36,75,INBOUND,2023-12-15,12:12,13:03,12:59
6011,2023-12-15T13:04,'FORBES + MURRAY FS',7096,61A,INBOUND,2023-12-15,12:27,13:04,13:07
6508,2023-12-15T13:04,'FORBES AVE + MOREWOOD (CARNEGIE MELLON)',7117,61A,OUTBOUND,2023-12-15,12:38,13:04,12:56
6794,2023-12-15T13:04,'FORBES AVE + MOREWOOD AVE FS (CARNEGIE MELLON)',4407,61D,INBOUND,2023-12-15,12:16,13:04,12:50
9415,2023-12-15T13:04,'FIFTH AVE + OAKLAND AVE',2565,71A,OUTBOUND,2023-12-15,12:52,13:04,12:59
6012,2023-12-15T13:04,'FORBES + MURRAY FS',7096,61B,INBOUND,2023-12-15,12:28,13:04,12:56
5936,2023-12-15T13:04,'FORBES AVE + MOREWOOD (CARNEGIE MELLON)',7117,61D,OUTBOUND,2023-12-15,12:37,13:04,12:52
9416,2023-12-15T13:04,'FIFTH  AVE + ATWOOD ST',36,71C,OUTBOUND,2023-12-15,13:02,13:05,06:13
6506,2023-12-15T13:05,'FORBES AVE + MOREWOOD (CARNEGIE MELLON)',7117,61C,OUTBOUND,2023-12-15,12:23,13:05,12:40
10724,2023-12-15T13:05,'FIFTH AVE + OAKLAND AVE',2565,71B,OUTBOUND,2023-12-15,12:52,13:06,13:07
7436,2023-12-15T13:06,'FIFTH  AVE + ATWOOD ST',36,61C,INBOUND,2023-12-15,12:08,13:07,13:05
5937,2023-12-15T13:06,'FIFTH  AVE + ATWOOD ST',36,61D,OUTBOUND,2023-12-15,12:57,13:11,12:20
7570,2023-12-15T12:56,'FIFTH AVE + OAKLAND AVE',2565,93,OUTBOUND,2023-12-15,12:29,13:23,13:05
6508,2023-12-15T13:08,'FORBES AVE + MURRAY AVE',7126,61A,OUTBOUND,2023-12-15,12:38,13:09,13:02
6796,2023-12-15T13:08,'FORBES + MURRAY FS',7096,61D,INBOUND,2023-12-15,12:36,13:09,13:04
6012,2023-12-15T13:08,'FORBES AVE + MOREWOOD AVE FS (CARNEGIE MELLON)',4407,61B,INBOUND,2023-12-15,12:28,13:09,13:01
6506,2023-12-15T13:07,'FORBES AVE + MURRAY AVE',7126,61C,OUTBOUND,2023-12-15,12:23,13:09,12:47
9416,2023-12-15T13:09,'FIFTH AVE + OAKLAND AVE',2565,71C,OUTBOUND,2023-12-15,13:02,13:10,13:08
6011,2023-12-15T13:10,'FORBES AVE + MOREWOOD AVE FS (CARNEGIE MELLON)',4407,61A,INBOUND,2023-12-15,12:27,13:10,13:13
9417,2023-12-15T13:10,'FIFTH  AVE + ATWOOD ST',36,71D,OUTBOUND,2023-12-15,13:07,13:10,11:03
9536,2023-12-15T13:10,'FIFTH AVE + OAKLAND AVE',2565,75,OUTBOUND,2023-12-15,12:57,13:10,13:07
5936,2023-12-15T13:10,'FORBES AVE + MURRAY AVE',7126,61D,OUTBOUND,2023-12-15,12:37,13:10,12:58
10449,2023-12-15T13:11,'FIFTH  AVE + ATWOOD ST',36,P3,INBOUND,2023-12-15,12:49,13:12,13:11
10724,2023-12-15T13:11,'FIFTH AVE + MOREWOOD AVE',1177,71B,OUTBOUND,2023-12-15,12:52,13:12,13:12
6510,2023-12-15T13:12,'FORBES AVE + MOREWOOD (CARNEGIE MELLON)',7117,61B,OUTBOUND,2023-12-15,12:47,13:12,13:06
7437,2023-12-15T13:12,'FORBES + MURRAY FS',7096,61C,INBOUND,2023-12-15,12:28,13:13,13:10
1906,2023-12-15T13:13,'FIFTH AVE + OAKLAND AVE',2565,54,INBOUND,2023-12-15,12:47,13:13,13:14
9418,2023-12-15T13:14,'FIFTH  AVE + ATWOOD ST',36,71A,OUTBOUND,2023-12-15,13:12,13:14,14:42
9039,2023-12-15T13:14,'FIFTH AVE + MOREWOOD AVE',1167,71B,INBOUND,2023-12-15,12:51,13:14,13:08
6796,2023-12-15T13:14,'FORBES AVE + MOREWOOD AVE FS (CARNEGIE MELLON)',4407,61D,INBOUND,2023-12-15,12:36,13:14,13:10
6511,2023-12-15T13:13,'FORBES AVE + MOREWOOD (CARNEGIE MELLON)',7117,61A,OUTBOUND,2023-12-15,12:58,13:15,13:16
9633,2023-12-15T13:15,'FORBES AVE + MOREWOOD AVE FS (CARNEGIE MELLON)',4407,28X,OUTBOUND,2023-12-15,13:04,13:17,13:13
9042,2023-12-15T13:16,'HIGHLAND AVE + BAUM',19383,71B,INBOUND,2023-12-15,13:11,13:24,13:19
6014,2023-12-15T13:17,'FORBES + MURRAY FS',7096,61B,INBOUND,2023-12-15,12:48,13:17,13:16
11204,2023-12-15T13:10,'FORBES AVE + MOREWOOD AVE FS (CARNEGIE MELLON)',4407,58,INBOUND,2023-12-15,13:18,13:18,05:55
6510,2023-12-15T13:17,'FORBES AVE + MURRAY AVE',7126,61B,OUTBOUND,2023-12-15,12:47,13:18,13:12
9417,2023-12-15T13:18,'FIFTH AVE + OAKLAND AVE',2565,71D,OUTBOUND,2023-12-15,13:07,13:18,13:13
7437,2023-12-15T13:18,'FORBES AVE + MOREWOOD AVE FS (CARNEGIE MELLON)',4407,61C,INBOUND,2023-12-15,12:28,13:19,13:16
6011,2023-12-15T13:18,'FIFTH  AVE + ATWOOD ST',36,61A,INBOUND,2023-12-15,12:27,13:19,13:20
10890,2023-12-15T13:18,'FIFTH AVE + MOREWOOD AVE',1167,71D,INBOUND,2023-12-15,12:58,13:19,13:20
6012,2023-12-15T13:18,'FIFTH  AVE + ATWOOD ST',36,61B,INBOUND,2023-12-15,12:28,13:20,13:10
9213,2023-12-15T13:19,'FORBES AVE + MOREWOOD AVE FS (CARNEGIE MELLON)',4407,67,INBOUND,2023-12-15,12:10,13:19,13:21
10674,2023-12-15T13:19,'FIFTH AVE + OAKLAND AVE',2565,P3,OUTBOUND,2023-12-15,13:15,13:20,13:19
6511,2023-12-15T13:19,'FORBES AVE + MURRAY AVE',7126,61A,OUTBOUND,2023-12-15,12:58,13:20,13:22
10724,2023-12-15T13:21,'HIGHLAND AVE + PENN',3268,71B,OUTBOUND,2023-12-15,12:52,13:21,13:23
9418,2023-12-15T13:22,'FIFTH AVE + OAKLAND AVE',2565,71A,OUTBOUND,2023-12-15,13:12,13:22,13:19
6014,2023-12-15T13:22,'FORBES AVE + MOREWOOD AVE FS (CARNEGIE MELLON)',4407,61B,INBOUND,2023-12-15,12:48,13:22,13:21
9039,2023-12-15T13:22,'FIFTH  AVE + ATWOOD ST',36,71B,INBOUND,2023-12-15,12:51,13:23,13:15
5938,2023-12-15T13:22,'FIFTH  AVE + ATWOOD ST',36,61D,OUTBOUND,2023-12-15,13:17,13:23,00:43
9142,2023-12-15T13:22,'FORBES AVE + MOREWOOD (CARNEGIE MELLON)',7117,69,OUTBOUND,2023-12-15,13:10,13:23,13:25
9632,2023-12-15T13:12,'FORBES AVE + MOREWOOD AVE FS (CARNEGIE MELLON)',4407,28X,OUTBOUND,2023-12-15,12:38,13:23,12:47
2099,2023-12-15T13:22,'FIFTH  AVE + ATWOOD ST',36,54,OUTBOUND,2023-12-15,12:31,13:23,13:19
9632,2023-12-15T13:12,'FIFTH  AVE + ATWOOD ST',36,28X,OUTBOUND,2023-12-15,12:38,13:27,12:51
8858,2023-12-15T13:22,'FIFTH  AVE + ATWOOD ST',36,75,INBOUND,2023-12-15,12:37,13:24,13:24
9633,2023-12-15T13:24,'FIFTH  AVE + ATWOOD ST',36,28X,OUTBOUND,2023-12-15,13:04,13:24,13:17
9534,2023-12-15T13:20,'FIFTH AVE + OAKLAND AVE',2565,75,OUTBOUND,2023-12-15,12:07,13:30,12:17
6013,2023-12-15T13:25,'FORBES + MURRAY FS',7096,61A,INBOUND,2023-12-15,12:47,13:25,13:27
9213,2023-12-15T13:25,'FIFTH  AVE + ATWOOD ST',36,67,INBOUND,2023-12-15,12:10,13:25,13:27
7571,2023-12-15T13:25,'FIFTH AVE + OAKLAND AVE',2565,93,OUTBOUND,2023-12-15,12:42,13:26,13:18
9417,2023-12-15T13:26,'FIFTH AVE + MOREWOOD AVE',1177,71D,OUTBOUND,2023-12-15,13:07,13:26,13:18
9419,2023-12-15T13:24,'FIFTH  AVE + ATWOOD ST',36,71C,OUTBOUND,2023-12-15,13:22,13:27,05:42
9420,2023-12-15T13:26,'FIFTH  AVE + ATWOOD ST',36,71D,OUTBOUND,2023-12-15,13:27,13:27,14:52
9419,2023-12-15T13:24,'FIFTH AVE + OAKLAND AVE',2565,71C,OUTBOUND,2023-12-15,13:22,13:33,13:27
7437,2023-12-15T13:27,'FIFTH  AVE + ATWOOD ST',36,61C,INBOUND,2023-12-15,12:28,13:28,13:25
10725,2023-12-15T13:28,'FIFTH AVE + OAKLAND AVE',2565,71B,OUTBOUND,2023-12-15,13:12,13:28,13:27
6797,2023-12-15T13:28,'FORBES + MURRAY FS',7096,61D,INBOUND,2023-12-15,12:54,13:28,13:23
5937,2023-12-15T13:29,'FORBES AVE + MOREWOOD (CARNEGIE MELLON)',7117,61D,OUTBOUND,2023-12-15,12:57,13:29,13:12
6014,2023-12-15T13:29,'FIFTH  AVE + ATWOOD ST',36,61B,INBOUND,2023-12-15,12:48,13:30,13:30
6013,2023-12-15T13:30,'FORBES AVE + MOREWOOD AVE FS (CARNEGIE MELLON)',4407,61A,INBOUND,2023-12-15,12:47,13:30,13:33
7438,2023-12-15T13:31,'FORBES + MURRAY FS',7096,61C,INBOUND,2023-12-15,12:46,13:31,13:30
9141,2023-12-15T13:32,'FORBES AVE + MOREWOOD (CARNEGIE MELLON)',7117,67,OUTBOUND,2023-12-15,13:10,13:32,13:24
6513,2023-12-15T13:32,'FORBES AVE + MOREWOOD (CARNEGIE MELLON)',7117,61B,OUTBOUND,2023-12-15,13:07,13:33,13:26
6797,2023-12-15T13:32,'FORBES AVE + MOREWOOD AVE FS (CARNEGIE MELLON)',4407,61D,INBOUND,2023-12-15,12:54,13:33,13:29
9420,2023-12-15T13:34,'FIFTH AVE + OAKLAND AVE',2565,71D,OUTBOUND,2023-12-15,13:27,13:34,13:33
5937,2023-12-15T13:35,'FORBES AVE + MURRAY AVE',7126,61D,OUTBOUND,2023-12-15,12:57,13:36,13:18
10725,2023-12-15T13:35,'FIFTH AVE + MOREWOOD AVE',1177,71B,OUTBOUND,2023-12-15,13:12,13:36,13:32
11643,2023-12-15T13:35,'FORBES AVE + MOREWOOD AVE FS (CARNEGIE MELLON)',4407,69,INBOUND,2023-12-15,12:18,13:36,13:32
7572,2023-12-15T13:36,'FIFTH AVE + OAKLAND AVE',2565,93,OUTBOUND,2023-12-15,12:57,13:36,13:33
7438,2023-12-15T13:36,'FORBES AVE + MOREWOOD AVE FS (CARNEGIE MELLON)',4407,61C,INBOUND,2023-12-15,12:46,13:37,13:36
9537,2023-12-15T13:37,'FIFTH AVE + OAKLAND AVE',2565,75,OUTBOUND,2023-12-15,13:22,13:37,13:32
6513,2023-12-15T13:37,'FORBES AVE + MURRAY AVE',7126,61B,OUTBOUND,2023-12-15,13:07,13:38,13:32
5938,2023-12-15T13:38,'FORBES AVE + MOREWOOD (CARNEGIE MELLON)',7117,61D,OUTBOUND,2023-12-15,13:17,13:39,13:32
6015,2023-12-15T13:38,'FORBES + MURRAY FS',7096,61B,INBOUND,2023-12-15,13:05,13:40,13:34
10893,2023-12-15T13:39,'FIFTH AVE + MOREWOOD AVE',1167,71D,INBOUND,2023-12-15,13:18,13:39,13:40
9044,2023-12-15T13:39,'HIGHLAND AVE + BAUM',19383,71B,INBOUND,2023-12-15,13:31,13:40,13:39
6013,2023-12-15T13:39,'FIFTH  AVE + ATWOOD ST',36,61A,INBOUND,2023-12-15,12:47,13:40,13:40
5939,2023-12-15T13:39,'FIFTH  AVE + ATWOOD ST',36,61D,OUTBOUND,2023-12-15,13:37,13:40,15:37
9420,2023-12-15T13:40,'FIFTH AVE + MOREWOOD AVE',1177,71D,OUTBOUND,2023-12-15,13:27,13:40,13:38
10456,2023-12-15T13:41,'FIFTH  AVE + ATWOOD ST',36,P3,INBOUND,2023-12-15,13:19,13:41,13:41
6509,2023-12-15T13:42,'FORBES AVE + MOREWOOD (CARNEGIE MELLON)',7117,61C,OUTBOUND,2023-12-15,12:45,13:43,13:02
11643,2023-12-15T13:42,'FIFTH  AVE + ATWOOD ST',36,69,INBOUND,2023-12-15,12:18,13:43,13:39
9635,2023-12-15T13:43,'FORBES AVE + MOREWOOD AVE FS (CARNEGIE MELLON)',4407,28X,OUTBOUND,2023-12-15,13:29,13:43,13:38
9042,2023-12-15T13:43,'FIFTH AVE + MOREWOOD AVE',1167,71B,INBOUND,2023-12-15,13:11,13:44,13:28
6015,2023-12-15T13:43,'FORBES AVE + MOREWOOD AVE FS (CARNEGIE MELLON)',4407,61B,INBOUND,2023-12-15,13:05,13:44,13:41
6512,2023-12-15T13:43,'FORBES AVE + MOREWOOD (CARNEGIE MELLON)',7117,61C,OUTBOUND,2023-12-15,13:06,13:44,13:24
8859,2023-12-15T13:42,'FIFTH  AVE + ATWOOD ST',36,75,INBOUND,2023-12-15,13:00,13:45,13:48
5938,2023-12-15T13:44,'FORBES AVE + MURRAY AVE',7126,61D,OUTBOUND,2023-12-15,13:17,13:44,13:38
1859,2023-12-15T13:44,'FIFTH AVE + OAKLAND AVE',2565,54,INBOUND,2023-12-15,13:17,13:44,13:38
6800,2023-12-15T13:44,'FORBES + MURRAY FS',7096,61D,INBOUND,2023-12-15,13:14,13:44,13:43
6514,2023-12-15T13:44,'FORBES AVE + MOREWOOD (CARNEGIE MELLON)',7117,61A,OUTBOUND,2023-12-15,13:18,13:44,13:36
7438,2023-12-15T13:44,'FIFTH  AVE + ATWOOD ST',36,61C,INBOUND,2023-12-15,12:46,13:45,13:45
10725,2023-12-15T13:45,'HIGHLAND AVE + PENN',3268,71B,OUTBOUND,2023-12-15,13:12,13:45,13:43
6016,2023-12-15T13:46,'FORBES + MURRAY FS',7096,61A,INBOUND,2023-12-15,13:07,13:47,13:46
9423,2023-12-15T13:46,'FIFTH  AVE + ATWOOD ST',36,71D,OUTBOUND,2023-12-15,13:47,13:48,19:17
6509,2023-12-15T13:47,'FORBES AVE + MURRAY AVE',7126,61C,OUTBOUND,2023-12-15,12:45,13:48,13:09
10675,2023-12-15T13:48,'FIFTH AVE + OAKLAND AVE',2565,P3,OUTBOUND,2023-12-15,13:45,13:48,13:49
9044,2023-12-15T13:48,'FIFTH AVE + MOREWOOD AVE',1167,71B,INBOUND,2023-12-15,13:31,13:49,13:48
6512,2023-12-15T13:48,'FORBES AVE + MURRAY AVE',7126,61C,OUTBOUND,2023-12-15,13:06,13:49,13:31
6800,2023-12-15T13:49,'FORBES AVE + MOREWOOD AVE FS (CARNEGIE MELLON)',4407,61D,INBOUND,2023-12-15,13:14,13:49,13:49
6514,2023-12-15T13:49,'FORBES AVE + MURRAY AVE',7126,61A,OUTBOUND,2023-12-15,13:18,13:49,13:42
2100,2023-12-15T13:50,'FIFTH  AVE + ATWOOD ST',36,54,OUTBOUND,2023-12-15,12:57,13:50,13:46
9422,2023-12-15T13:50,'FIFTH  AVE + ATWOOD ST',36,71C,OUTBOUND,2023-12-15,13:42,13:51,14:56
6016,2023-12-15T13:51,'FORBES AVE + MOREWOOD AVE FS (CARNEGIE MELLON)',4407,61A,INBOUND,2023-12-15,13:07,13:51,13:51
9635,2023-12-15T13:52,'FIFTH  AVE + ATWOOD ST',36,28X,OUTBOUND,2023-12-15,13:29,13:53,13:42
9216,2023-12-15T13:52,'FORBES AVE + MOREWOOD AVE FS (CARNEGIE MELLON)',4407,67,INBOUND,2023-12-15,12:45,13:53,13:56
9042,2023-12-15T13:52,'FIFTH  AVE + ATWOOD ST',36,71B,INBOUND,2023-12-15,13:11,13:54,13:35
9423,2023-12-15T13:53,'FIFTH AVE + OAKLAND AVE',2565,71D,OUTBOUND,2023-12-15,13:47,13:53,13:52
5939,2023-12-15T13:54,'FORBES AVE + MOREWOOD (CARNEGIE MELLON)',7117,61D,OUTBOUND,2023-12-15,13:37,13:54,13:52
9273,2023-12-15T13:54,'FIFTH AVE + MOREWOOD AVE',1177,58,OUTBOUND,2023-12-15,13:00,13:54,13:42
6015,2023-12-15T13:54,'FIFTH  AVE + ATWOOD ST',36,61B,INBOUND,2023-12-15,13:05,13:55,13:50
10726,2023-12-15T13:54,'FIFTH AVE + OAKLAND AVE',2565,71B,OUTBOUND,2023-12-15,13:32,13:55,13:48
6515,2023-12-15T13:54,'FORBES AVE + MOREWOOD (CARNEGIE MELLON)',7117,61C,OUTBOUND,2023-12-15,13:26,13:55,13:44
9044,2023-12-15T13:56,'FIFTH  AVE + ATWOOD ST',36,71B,INBOUND,2023-12-15,13:31,13:56,13:55
10727,2023-12-15T13:53,'FIFTH AVE + MOREWOOD AVE',1177,71B,OUTBOUND,2023-12-15,13:52,13:58,14:13
9046,2023-12-15T13:57,'HIGHLAND AVE + BAUM',19383,71B,INBOUND,2023-12-15,13:50,13:58,13:58
9422,2023-12-15T13:58,'FIFTH AVE + OAKLAND AVE',2565,71C,OUTBOUND,2023-12-15,13:42,13:58,13:48
5940,2023-12-15T13:58,'FIFTH  AVE + ATWOOD ST',36,61D,OUTBOUND,2023-12-15,13:57,13:58,05:25
9538,2023-12-15T13:58,'FIFTH AVE + OAKLAND AVE',2565,75,OUTBOUND,2023-12-15,13:47,13:58,13:57
6516,2023-12-15T13:58,'FORBES AVE + MOREWOOD (CARNEGIE MELLON)',7117,61B,OUTBOUND,2023-12-15,13:27,13:59,13:46
6517,2023-12-15T13:58,'FORBES AVE + MOREWOOD (CARNEGIE MELLON)',7117,61A,OUTBOUND,2023-12-15,13:39,14:00,13:57
6016,2023-12-15T13:58,'FIFTH  AVE + ATWOOD ST',36,61A,INBOUND,2023-12-15,13:07,14:00,14:00
6515,2023-12-15T13:59,'FORBES AVE + MURRAY AVE',7126,61C,OUTBOUND,2023-12-15,13:26,13:59,13:51
5939,2023-12-15T13:59,'FORBES AVE + MURRAY AVE',7126,61D,OUTBOUND,2023-12-15,13:37,13:59,13:58
9424,2023-12-15T13:58,'FIFTH  AVE + ATWOOD ST',36,71A,OUTBOUND,2023-12-15,13:52,14:01,21:16
9423,2023-12-15T14:00,'FIFTH AVE + MOREWOOD AVE',1177,71D,OUTBOUND,2023-12-15,13:47,14:01,13:58
6017,2023-12-15T14:01,'FORBES + MURRAY FS',7096,61B,INBOUND,2023-12-15,13:25,14:01,13:54
10726,2023-12-15T14:01,'FIFTH AVE + MOREWOOD AVE',1177,71B,OUTBOUND,2023-12-15,13:32,14:01,13:53
9216,2023-12-15T14:01,'FIFTH  AVE + ATWOOD ST',36,67,INBOUND,2023-12-15,12:45,14:01,14:02
10896,2023-12-15T14:02,'FIFTH AVE + MOREWOOD AVE',1167,71D,INBOUND,2023-12-15,13:38,14:03,14:00
10727,2023-12-15T13:53,'HIGHLAND AVE + PENN',3268,71B,OUTBOUND,2023-12-15,13:52,14:09,14:25
6517,2023-12-15T14:03,'FORBES AVE + MURRAY AVE',7126,61A,OUTBOUND,2023-12-15,13:39,14:04,14:03
6516,2023-12-15T14:03,'FORBES AVE + MURRAY AVE',7126,61B,OUTBOUND,2023-12-15,13:27,14:04,13:52
9425,2023-12-15T14:04,'FIFTH  AVE + ATWOOD ST',36,71C,OUTBOUND,2023-12-15,14:02,14:05,09:50
9143,2023-12-15T14:04,'FORBES AVE + MOREWOOD (CARNEGIE MELLON)',7117,67,OUTBOUND,2023-12-15,13:45,14:05,13:59
6018,2023-12-15T14:05,'FORBES + MURRAY FS',7096,61A,INBOUND,2023-12-15,13:27,14:06,14:06
6017,2023-12-15T14:07,'FORBES AVE + MOREWOOD AVE FS (CARNEGIE MELLON)',4407,61B,INBOUND,2023-12-15,13:25,14:07,14:01
9046,2023-12-15T14:08,'FIFTH AVE + MOREWOOD AVE',1167,71B,INBOUND,2023-12-15,13:50,14:08,14:08
9424,2023-12-15T14:09,'FIFTH AVE + OAKLAND AVE',2565,71A,OUTBOUND,2023-12-15,13:52,14:09,13:59
2101,2023-12-15T14:09,'FIFTH  AVE + ATWOOD ST',36,54,OUTBOUND,2023-12-15,13:14,14:10,14:07
10726,2023-12-15T14:09,'HIGHLAND AVE + PENN',3268,71B,OUTBOUND,2023-12-15,13:32,14:11,14:05
1908,2023-12-15T14:10,'FIFTH AVE + OAKLAND AVE',2565,54,INBOUND,2023-12-15,13:37,14:10,14:04
9426,2023-12-15T14:10,'FIFTH  AVE + ATWOOD ST',36,71D,OUTBOUND,2023-12-15,14:07,14:10,17:10
6018,2023-12-15T14:10,'FORBES AVE + MOREWOOD AVE FS (CARNEGIE MELLON)',4407,61A,INBOUND,2023-12-15,13:27,14:11,14:11
6802,2023-12-15T14:10,'FORBES + MURRAY FS',7096,61D,INBOUND,2023-12-15,13:34,14:11,14:03
10462,2023-12-15T14:11,'FIFTH  AVE + ATWOOD ST',36,P3,INBOUND,2023-12-15,13:44,14:12,14:06
9425,2023-12-15T14:11,'FIFTH AVE + OAKLAND AVE',2565,71C,OUTBOUND,2023-12-15,14:02,14:12,14:07
9427,2023-12-15T14:12,'FIFTH  AVE + ATWOOD ST',36,71A,OUTBOUND,2023-12-15,14:12,14:12,11:52
6019,2023-12-15T14:14,'FORBES + MURRAY FS',7096,61B,INBOUND,2023-12-15,13:45,14:15,14:14
7573,2023-12-15T14:14,'FIFTH AVE + OAKLAND AVE',2565,93,OUTBOUND,2023-12-15,13:25,14:15,14:02
11206,2023-12-15T14:14,'FORBES AVE + MOREWOOD AVE FS (CARNEGIE MELLON)',4407,58,INBOUND,2023-12-15,14:15,14:15,18:36
8860,2023-12-15T14:14,'FIFTH  AVE + ATWOOD ST',36,75,INBOUND,2023-12-15,13:25,14:16,14:13
5940,2023-12-15T14:15,'FORBES AVE + MOREWOOD (CARNEGIE MELLON)',7117,61D,OUTBOUND,2023-12-15,13:57,14:15,14:10
6017,2023-12-15T14:15,'FIFTH  AVE + ATWOOD ST',36,61B,INBOUND,2023-12-15,13:25,14:16,14:10
6518,2023-12-15T14:16,'FORBES AVE + MOREWOOD (CARNEGIE MELLON)',7117,61C,OUTBOUND,2023-12-15,13:46,14:16,14:04
6519,2023-12-15T14:16,'FORBES AVE + MOREWOOD (CARNEGIE MELLON)',7117,61B,OUTBOUND,2023-12-15,13:49,14:16,14:08
9046,2023-12-15T14:16,'FIFTH  AVE + ATWOOD ST',36,71B,INBOUND,2023-12-15,13:50,14:17,14:15
9144,2023-12-15T14:16,'FORBES AVE + MOREWOOD (CARNEGIE MELLON)',7117,69,OUTBOUND,2023-12-15,14:00,14:17,14:15
6802,2023-12-15T14:17,'FORBES AVE + MOREWOOD AVE FS (CARNEGIE MELLON)',4407,61D,INBOUND,2023-12-15,13:34,14:17,14:09
9426,2023-12-15T14:17,'FIFTH AVE + OAKLAND AVE',2565,71D,OUTBOUND,2023-12-15,14:07,14:17,14:12
6018,2023-12-15T14:19,'FIFTH  AVE + ATWOOD ST',36,61A,INBOUND,2023-12-15,13:27,14:20,14:20
10676,2023-12-15T14:19,'FIFTH AVE + OAKLAND AVE',2565,P3,OUTBOUND,2023-12-15,14:10,14:20,14:15
5940,2023-12-15T14:19,'FORBES AVE + MURRAY AVE',7126,61D,OUTBOUND,2023-12-15,13:57,14:21,14:16
6019,2023-12-15T14:20,'FORBES AVE + MOREWOOD AVE FS (CARNEGIE MELLON)',4407,61B,INBOUND,2023-12-15,13:45,14:22,14:21
10900,2023-12-15T14:20,'FIFTH AVE + MOREWOOD AVE',1167,71D,INBOUND,2023-12-15,13:58,14:22,14:20
9427,2023-12-15T14:21,'FIFTH AVE + OAKLAND AVE',2565,71A,OUTBOUND,2023-12-15,14:12,14:21,14:19
6518,2023-12-15T14:21,'FORBES AVE + MURRAY AVE',7126,61C,OUTBOUND,2023-12-15,13:46,14:22,14:11
7440,2023-12-15T14:22,'FORBES + MURRAY FS',7096,61C,INBOUND,2023-12-15,13:26,14:23,14:10
6519,2023-12-15T14:22,'FORBES AVE + MURRAY AVE',7126,61B,OUTBOUND,2023-12-15,13:49,14:23,14:14
6804,2023-12-15T14:25,'FORBES + MURRAY FS',7096,61D,INBOUND,2023-12-15,13:54,14:26,14:23
9426,2023-12-15T14:25,'FIFTH AVE + MOREWOOD AVE',1177,71D,OUTBOUND,2023-12-15,14:07,14:26,14:18
5941,2023-12-15T14:26,'FIFTH  AVE + ATWOOD ST',36,61D,OUTBOUND,2023-12-15,14:17,14:27,23:18
6520,2023-12-15T14:26,'FORBES AVE + MOREWOOD (CARNEGIE MELLON)',7117,61A,OUTBOUND,2023-12-15,13:59,14:27,14:17
9539,2023-12-15T14:26,'FIFTH AVE + OAKLAND AVE',2565,75,OUTBOUND,2023-12-15,14:12,14:27,14:23
6521,2023-12-15T14:27,'FORBES AVE + MOREWOOD (CARNEGIE MELLON)',7117,61C,OUTBOUND,2023-12-15,14:09,14:28,14:28
9218,2023-12-15T14:27,'FORBES AVE + MOREWOOD AVE FS (CARNEGIE MELLON)',4407,67,INBOUND,2023-12-15,13:20,14:29,14:31
7440,2023-12-15T14:28,'FORBES AVE + MOREWOOD AVE FS (CARNEGIE MELLON)',4407,61C,INBOUND,2023-12-15,13:26,14:29,14:16
9429,2023-12-15T14:28,'FIFTH  AVE + ATWOOD ST',36,71D,OUTBOUND,2023-12-15,14:27,14:29,12:47
7441,2023-12-15T14:29,'FORBES + MURRAY FS',7096,61C,INBOUND,2023-12-15,13:44,14:30,14:28
9639,2023-12-15T14:29,'FORBES AVE + MOREWOOD AVE FS (CARNEGIE MELLON)',4407,28X,OUTBOUND,2023-12-15,14:19,14:30,14:29
6020,2023-12-15T14:30,'FORBES + MURRAY FS',7096,61A,INBOUND,2023-12-15,13:49,14:31,14:27
6804,2023-12-15T14:30,'FORBES AVE + MOREWOOD AVE FS (CARNEGIE MELLON)',4407,61D,INBOUND,2023-12-15,13:54,14:31,14:29
10465,2023-12-15T14:31,'FIFTH  AVE + ATWOOD ST',36,P3,INBOUND,2023-12-15,14:04,14:32,14:26
6520,2023-12-15T14:32,'FORBES AVE + MURRAY AVE',7126,61A,OUTBOUND,2023-12-15,13:59,14:32,14:23
6019,2023-12-15T14:32,'FIFTH  AVE + ATWOOD ST',36,61B,INBOUND,2023-12-15,13:45,14:34,14:30
6521,2023-12-15T14:33,'FORBES AVE + MURRAY AVE',7126,61C,OUTBOUND,2023-12-15,14:09,14:34,14:35
7441,2023-12-15T14:34,'FORBES AVE + MOREWOOD AVE FS (CARNEGIE MELLON)',4407,61C,INBOUND,2023-12-15,13:44,14:35,14:34
9430,2023-12-15T14:34,'FIFTH  AVE + ATWOOD ST',36,71A,OUTBOUND,2023-12-15,14:32,14:35,19:13
6020,2023-12-15T14:35,'FORBES AVE + MOREWOOD AVE FS (CARNEGIE MELLON)',4407,61A,INBOUND,2023-12-15,13:49,14:36,14:32
10728,2023-12-15T14:35,'FIFTH AVE + OAKLAND AVE',2565,71B,OUTBOUND,2023-12-15,14:12,14:36,14:28
9429,2023-12-15T14:35,'FIFTH AVE + OAKLAND AVE',2565,71D,OUTBOUND,2023-12-15,14:27,14:36,14:34
2102,2023-12-15T14:35,'FIFTH  AVE + ATWOOD ST',36,54,OUTBOUND,2023-12-15,13:40,14:36,14:32
1860,2023-12-15T14:35,'FIFTH AVE + OAKLAND AVE',2565,54,INBOUND,2023-12-15,14:07,14:36,14:29
9218,2023-12-15T14:36,'FIFTH  AVE + ATWOOD ST',36,67,INBOUND,2023-12-15,13:20,14:37,14:37
9145,2023-12-15T14:36,'FORBES AVE + MOREWOOD (CARNEGIE MELLON)',7117,67,OUTBOUND,2023-12-15,14:20,14:37,14:35
8862,2023-12-15T14:34,'FIFTH  AVE + ATWOOD ST',36,75,INBOUND,2023-12-15,13:50,14:38,14:38
9639,2023-12-15T14:37,'FIFTH  AVE + ATWOOD ST',36,28X,OUTBOUND,2023-12-15,14:19,14:38,14:33
6806,2023-12-15T14:38,'FORBES + MURRAY FS',7096,61D,INBOUND,2023-12-15,14:10,14:39,14:39
7440,2023-12-15T14:38,'FIFTH  AVE + ATWOOD ST',36,61C,INBOUND,2023-12-15,13:26,14:39,14:25
7575,2023-12-15T14:38,'FIFTH AVE + OAKLAND AVE',2565,93,OUTBOUND,2023-12-15,13:55,14:39,14:32
5941,2023-12-15T14:39,'FORBES AVE + MOREWOOD (CARNEGIE MELLON)',7117,61D,OUTBOUND,2023-12-15,14:17,14:40,14:35
10677,2023-12-15T14:39,'FIFTH AVE + OAKLAND AVE',2565,P3,OUTBOUND,2023-12-15,14:30,14:40,14:35
5942,2023-12-15T14:39,'FIFTH  AVE + ATWOOD ST',36,61D,OUTBOUND,2023-12-15,14:37,14:41,20:13
9051,2023-12-15T14:40,'HIGHLAND AVE + BAUM',19383,71B,INBOUND,2023-12-15,14:26,14:41,14:34
10904,2023-12-15T14:40,'FIFTH AVE + MOREWOOD AVE',1167,71D,INBOUND,2023-12-15,14:16,14:42,14:38
6522,2023-12-15T14:40,'FORBES AVE + MOREWOOD (CARNEGIE MELLON)',7117,61B,OUTBOUND,2023-12-15,14:11,14:42,14:32
7441,2023-12-15T14:41,'FIFTH  AVE + ATWOOD ST',36,61C,INBOUND,2023-12-15,13:44,14:42,14:43
7442,2023-12-15T14:42,'FORBES + MURRAY FS',7096,61C,INBOUND,2023-12-15,13:59,14:43,14:43
9430,2023-12-15T14:42,'FIFTH AVE + OAKLAND AVE',2565,71A,OUTBOUND,2023-12-15,14:32,14:43,14:39
6022,2023-12-15T14:42,'FORBES + MURRAY FS',7096,61A,INBOUND,2023-12-15,14:04,14:43,14:42
6023,2023-12-15T14:43,'FORBES + MURRAY FS',7096,61B,INBOUND,2023-12-15,14:17,14:44,14:46
6020,2023-12-15T14:43,'FIFTH  AVE + ATWOOD ST',36,61A,INBOUND,2023-12-15,13:49,14:45,14:40
6806,2023-12-15T14:44,'FORBES AVE + MOREWOOD AVE FS (CARNEGIE MELLON)',4407,61D,INBOUND,2023-12-15,14:10,14:45,14:45
5941,2023-12-15T14:44,'FORBES AVE + MURRAY AVE',7126,61D,OUTBOUND,2023-12-15,14:17,14:45,14:41
6522,2023-12-15T14:44,'FORBES AVE + MURRAY AVE',7126,61B,OUTBOUND,2023-12-15,14:11,14:46,14:39
10728,2023-12-15T14:45,'FIFTH AVE + MOREWOOD AVE',1177,71B,OUTBOUND,2023-12-15,14:12,14:46,14:33
9429,2023-12-15T14:45,'FIFTH AVE + MOREWOOD AVE',1177,71D,OUTBOUND,2023-12-15,14:27,14:46,14:40
10471,2023-12-15T14:46,'FIFTH  AVE + ATWOOD ST',36,P3,INBOUND,2023-12-15,14:24,14:47,14:46
9431,2023-12-15T14:46,'FIFTH  AVE + ATWOOD ST',36,71C,OUTBOUND,2023-12-15,14:42,14:47,18:47
9432,2023-12-15T14:47,'FIFTH  AVE + ATWOOD ST',36,71D,OUTBOUND,2023-12-15,14:45,14:48,08:33
7442,2023-12-15T14:47,'FORBES AVE + MOREWOOD AVE FS (CARNEGIE MELLON)',4407,61C,INBOUND,2023-12-15,13:59,14:48,14:49
9053,2023-12-15T14:47,'HIGHLAND AVE + BAUM',19383,71B,INBOUND,2023-12-15,14:42,14:48,14:50
6523,2023-12-15T14:47,'FORBES AVE + MOREWOOD (CARNEGIE MELLON)',7117,61A,OUTBOUND,2023-12-15,14:19,14:48,14:37
6022,2023-12-15T14:49,'FORBES AVE + MOREWOOD AVE FS (CARNEGIE MELLON)',4407,61A,INBOUND,2023-12-15,14:04,14:50,14:47
9051,2023-12-15T14:51,'FIFTH AVE + MOREWOOD AVE',1167,71B,INBOUND,2023-12-15,14:26,14:52,14:44
9433,2023-12-15T14:51,'FIFTH  AVE + ATWOOD ST',36,71A,OUTBOUND,2023-12-15,14:49,14:52,11:27
5943,2023-12-15T14:52,'FIFTH  AVE + ATWOOD ST',36,61D,OUTBOUND,2023-12-15,14:53,14:53,21:23
9434,2023-12-15T14:51,'FIFTH  AVE + ATWOOD ST',36,71C,OUTBOUND,2023-12-15,14:57,14:57,07:57
10906,2023-12-15T14:52,'FIFTH AVE + MOREWOOD AVE',1167,71D,INBOUND,2023-12-15,14:31,14:53,14:53
6023,2023-12-15T14:52,'FORBES AVE + MOREWOOD AVE FS (CARNEGIE MELLON)',4407,61B,INBOUND,2023-12-15,14:17,14:53,14:53
9433,2023-12-15T14:52,'FIFTH AVE + OAKLAND AVE',2565,71A,OUTBOUND,2023-12-15,14:49,14:53,14:56
6523,2023-12-15T14:52,'FORBES AVE + MURRAY AVE',7126,61A,OUTBOUND,2023-12-15,14:19,14:53,14:44
6024,2023-12-15T14:52,'FORBES + MURRAY FS',7096,61A,INBOUND,2023-12-15,14:19,14:55,14:57
10729,2023-12-15T14:54,'FIFTH AVE + OAKLAND AVE',2565,71B,OUTBOUND,2023-12-15,14:34,14:55,14:50
9540,2023-12-15T14:54,'FIFTH AVE + OAKLAND AVE',2565,75,OUTBOUND,2023-12-15,14:37,14:55,14:48
2103,2023-12-15T14:54,'FIFTH  AVE + ATWOOD ST',36,54,OUTBOUND,2023-12-15,14:02,14:55,14:55
9432,2023-12-15T14:56,'FIFTH AVE + OAKLAND AVE',2565,71D,OUTBOUND,2023-12-15,14:45,14:56,14:52
10678,2023-12-15T14:55,'FIFTH AVE + OAKLAND AVE',2565,P3,OUTBOUND,2023-12-15,14:50,14:56,14:55
9431,2023-12-15T14:55,'FIFTH AVE + OAKLAND AVE',2565,71C,OUTBOUND,2023-12-15,14:42,14:56,14:49
7442,2023-12-15T14:56,'FIFTH  AVE + ATWOOD ST',36,61C,INBOUND,2023-12-15,13:59,14:57,14:58
6526,2023-12-15T14:57,'FORBES AVE + MOREWOOD (CARNEGIE MELLON)',7117,61A,OUTBOUND,2023-12-15,14:39,14:57,14:57
9434,2023-12-15T14:56,'FIFTH AVE + OAKLAND AVE',2565,71C,OUTBOUND,2023-12-15,14:57,14:57,15:04
5942,2023-12-15T14:56,'FORBES AVE + MOREWOOD (CARNEGIE MELLON)',7117,61D,OUTBOUND,2023-12-15,14:37,14:58,14:50
9053,2023-12-15T14:56,'FIFTH AVE + MOREWOOD AVE',1167,71B,INBOUND,2023-12-15,14:42,14:58,14:59
6022,2023-12-15T14:56,'FIFTH  AVE + ATWOOD ST',36,61A,INBOUND,2023-12-15,14:04,14:58,14:55
9051,2023-12-15T14:56,'FIFTH  AVE + ATWOOD ST',36,71B,INBOUND,2023-12-15,14:26,14:59,14:51
9641,2023-12-15T14:57,'FORBES AVE + MOREWOOD AVE FS (CARNEGIE MELLON)',4407,28X,OUTBOUND,2023-12-15,14:42,14:59,14:51
9435,2023-12-15T14:56,'FIFTH  AVE + ATWOOD ST',36,71D,OUTBOUND,2023-12-15,15:00,15:00,08:07
10728,2023-12-15T14:59,'HIGHLAND AVE + PENN',3268,71B,OUTBOUND,2023-12-15,14:12,15:00,14:45
6525,2023-12-15T14:59,'FORBES AVE + MOREWOOD (CARNEGIE MELLON)',7117,61B,OUTBOUND,2023-12-15,14:31,15:01,14:52
6024,2023-12-15T15:00,'FORBES AVE + MOREWOOD AVE FS (CARNEGIE MELLON)',4407,61A,INBOUND,2023-12-15,14:19,15:00,15:02
6807,2023-12-15T15:00,'FORBES + MURRAY FS',7096,61D,INBOUND,2023-12-15,14:24,15:00,14:54
6025,2023-12-15T15:00,'FORBES + MURRAY FS',7096,61B,INBOUND,2023-12-15,14:32,15:02,15:01
10475,2023-12-15T15:01,'FIFTH  AVE + ATWOOD ST',36,P3,INBOUND,2023-12-15,14:39,15:01,15:01
6023,2023-12-15T15:01,'FIFTH  AVE + ATWOOD ST',36,61B,INBOUND,2023-12-15,14:17,15:02,15:02
10729,2023-12-15T15:02,'FIFTH AVE + MOREWOOD AVE',1177,71B,OUTBOUND,2023-12-15,14:34,15:03,14:55
6526,2023-12-15T15:02,'FORBES AVE + MURRAY AVE',7126,61A,OUTBOUND,2023-12-15,14:39,15:04,15:04
7443,2023-12-15T15:02,'FORBES + MURRAY FS',7096,61C,INBOUND,2023-12-15,14:14,15:04,14:54
9432,2023-12-15T15:02,'FIFTH AVE + MOREWOOD AVE',1177,71D,OUTBOUND,2023-12-15,14:45,15:05,14:58
5942,2023-12-15T15:02,'FORBES AVE + MURRAY AVE',7126,61D,OUTBOUND,2023-12-15,14:37,15:05,14:56
9053,2023-12-15T15:02,'FIFTH  AVE + ATWOOD ST',36,71B,INBOUND,2023-12-15,14:42,15:05,15:06
9056,2023-12-15T15:02,'HIGHLAND AVE + BAUM',19383,71B,INBOUND,2023-12-15,14:57,15:06,15:05
9435,2023-12-15T15:02,'FIFTH AVE + OAKLAND AVE',2565,71D,OUTBOUND,2023-12-15,15:00,15:06,15:07
6525,2023-12-15T15:02,'FORBES AVE + MURRAY AVE',7126,61B,OUTBOUND,2023-12-15,14:31,15:07,14:59
6807,2023-12-15T15:02,'FORBES AVE + MOREWOOD AVE FS (CARNEGIE MELLON)',4407,61D,INBOUND,2023-12-15,14:24,15:07,15:00
6025,2023-12-15T15:07,'FORBES AVE + MOREWOOD AVE FS (CARNEGIE MELLON)',4407,61B,INBOUND,2023-12-15,14:32,15:07,15:08
9641,2023-12-15T15:07,'FIFTH  AVE + ATWOOD ST',36,28X,OUTBOUND,2023-12-15,14:42,15:08,14:55
8864,2023-12-15T15:07,'FIFTH  AVE + ATWOOD ST',36,75,INBOUND,2023-12-15,14:15,15:08,15:03
10679,2023-12-15T15:08,'FIFTH AVE + OAKLAND AVE',2565,P3,OUTBOUND,2023-12-15,15:05,15:09,15:10
7443,2023-12-15T15:08,'FORBES AVE + MOREWOOD AVE FS (CARNEGIE MELLON)',4407,61C,INBOUND,2023-12-15,14:14,15:10,14:59
6024,2023-12-15T15:08,'FIFTH  AVE + ATWOOD ST',36,61A,INBOUND,2023-12-15,14:19,15:10,15:10
5943,2023-12-15T15:08,'FORBES AVE + MOREWOOD (CARNEGIE MELLON)',7117,61D,OUTBOUND,2023-12-15,14:53,15:11,15:11
6810,2023-12-15T15:08,'FORBES + MURRAY FS',7096,61D,INBOUND,2023-12-15,14:39,15:11,15:09
9147,2023-12-15T15:08,'FORBES AVE + MOREWOOD (CARNEGIE MELLON)',7117,67,OUTBOUND,2023-12-15,14:55,15:12,15:10
11648,2023-12-15T15:08,'FORBES AVE + MOREWOOD AVE FS (CARNEGIE MELLON)',4407,69,INBOUND,2023-12-15,14:00,15:12,15:13
7444,2023-12-15T15:08,'FORBES + MURRAY FS',7096,61C,INBOUND,2023-12-15,14:29,15:13,15:13
9541,2023-12-15T15:08,'FIFTH AVE + OAKLAND AVE',2565,75,OUTBOUND,2023-12-15,15:02,15:13,15:13
9436,2023-12-15T15:08,'FIFTH  AVE + ATWOOD ST',36,71A,OUTBOUND,2023-12-15,15:04,15:13,11:17
9435,2023-12-15T15:08,'FIFTH AVE + MOREWOOD AVE',1177,71D,OUTBOUND,2023-12-15,15:00,15:13,15:13
1910,2023-12-15T15:08,'FIFTH AVE + OAKLAND AVE',2565,54,INBOUND,2023-12-15,14:27,15:13,14:54
5944,2023-12-15T15:08,'FIFTH  AVE + ATWOOD ST',36,61D,OUTBOUND,2023-12-15,15:08,15:14,17:49
9056,2023-12-15T15:08,'FIFTH AVE + MOREWOOD AVE',1167,71B,INBOUND,2023-12-15,14:57,15:15,15:14
10910,2023-12-15T15:08,'FIFTH AVE + MOREWOOD AVE',1167,71D,INBOUND,2023-12-15,14:46,15:16,15:08
10729,2023-12-15T15:08,'HIGHLAND AVE + PENN',3268,71B,OUTBOUND,2023-12-15,14:34,15:16,15:07
6026,2023-12-15T15:08,'FORBES + MURRAY FS',7096,61A,INBOUND,2023-12-15,14:34,15:16,15:12
5943,2023-12-15T15:08,'FORBES AVE + MURRAY AVE',7126,61D,OUTBOUND,2023-12-15,14:53,15:17,15:17
6027,2023-12-15T15:08,'FORBES + MURRAY FS',7096,61B,INBOUND,2023-12-15,14:47,15:17,15:16
6025,2023-12-15T15:08,'FIFTH  AVE + ATWOOD ST',36,61B,INBOUND,2023-12-15,14:32,15:17,15:17
9222,2023-12-15T15:08,'FORBES AVE + MOREWOOD AVE FS (CARNEGIE MELLON)',4407,67,INBOUND,2023-12-15,13:56,15:17,15:07
6810,2023-12-15T15:08,'FORBES AVE + MOREWOOD AVE FS (CARNEGIE MELLON)',4407,61D,INBOUND,2023-12-15,14:39,15:17,15:15
7443,2023-12-15T15:08,'FIFTH  AVE + ATWOOD ST',36,61C,INBOUND,2023-12-15,14:14,15:18,15:07
9437,2023-12-15T15:08,'FIFTH  AVE + ATWOOD ST',36,71C,OUTBOUND,2023-12-15,15:12,15:18,08:00
11648,2023-12-15T15:08,'FIFTH  AVE + ATWOOD ST',36,69,INBOUND,2023-12-15,14:00,15:18,15:19
7444,2023-12-15T15:08,'FORBES AVE + MOREWOOD AVE FS (CARNEGIE MELLON)',4407,61C,INBOUND,2023-12-15,14:29,15:19,15:19
7576,2023-12-15T15:08,'FIFTH AVE + OAKLAND AVE',2565,93,OUTBOUND,2023-12-15,14:27,15:19,15:04
9058,2023-12-15T15:08,'HIGHLAND AVE + BAUM',19383,71B,INBOUND,2023-12-15,15:12,15:20,15:18
9436,2023-12-15T15:08,'FIFTH AVE + OAKLAND AVE',2565,71A,OUTBOUND,2023-12-15,15:04,15:20,15:11
2105,2023-12-15T15:08,'FIFTH  AVE + ATWOOD ST',36,54,OUTBOUND,2023-12-15,14:30,15:22,15:22
9438,2023-12-15T15:08,'FIFTH  AVE + ATWOOD ST',36,71D,OUTBOUND,2023-12-15,15:15,15:22,07:15
9056,2023-12-15T15:08,'FIFTH  AVE + ATWOOD ST',36,71B,INBOUND,2023-12-15,14:57,15:22,15:21
6026,2023-12-15T15:08,'FORBES AVE + MOREWOOD AVE FS (CARNEGIE MELLON)',4407,61A,INBOUND,2023-12-15,14:34,15:22,15:17
9222,2023-12-15T15:08,'FIFTH  AVE + ATWOOD ST',36,67,INBOUND,2023-12-15,13:56,15:23,15:13
10912,2023-12-15T15:08,'FIFTH AVE + MOREWOOD AVE',1167,71D,INBOUND,2023-12-15,15:01,15:23,15:23
6528,2023-12-15T15:08,'FORBES AVE + MOREWOOD (CARNEGIE MELLON)',7117,61B,OUTBOUND,2023-12-15,14:51,15:24,15:12
6527,2023-12-15T15:08,'FORBES AVE + MOREWOOD (CARNEGIE MELLON)',7117,61C,OUTBOUND,2023-12-15,14:49,15:24,15:08
6529,2023-12-15T15:08,'FORBES AVE + MOREWOOD (CARNEGIE MELLON)',7117,61A,OUTBOUND,2023-12-15,15:04,15:24,15:22
9437,2023-12-15T15:08,'FIFTH AVE + OAKLAND AVE',2565,71C,OUTBOUND,2023-12-15,15:12,15:24,15:18
6027,2023-12-15T15:08,'FORBES AVE + MOREWOOD AVE FS (CARNEGIE MELLON)',4407,61B,INBOUND,2023-12-15,14:47,15:25,15:23
6531,2023-12-15T15:03,'FORBES AVE + MOREWOOD (CARNEGIE MELLON)',7117,61B,OUTBOUND,2023-12-15,15:08,15:25,15:30
5945,2023-12-15T15:08,'FIFTH  AVE + ATWOOD ST',36,61D,OUTBOUND,2023-12-15,15:23,15:25,17:22
6530,2023-12-15T15:08,'FORBES AVE + MOREWOOD (CARNEGIE MELLON)',7117,61C,OUTBOUND,2023-12-15,15:07,15:26,15:28
9440,2023-12-15T15:08,'FIFTH  AVE + ATWOOD ST',36,71C,OUTBOUND,2023-12-15,15:27,15:27,22:56
7444,2023-12-15T15:08,'FIFTH  AVE + ATWOOD ST',36,61C,INBOUND,2023-12-15,14:29,15:28,15:28
6811,2023-12-15T15:08,'FORBES + MURRAY FS',7096,61D,INBOUND,2023-12-15,14:54,15:28,15:24
9438,2023-12-15T15:08,'FIFTH AVE + OAKLAND AVE',2565,71D,OUTBOUND,2023-12-15,15:15,15:29,15:22
9058,2023-12-15T15:08,'FIFTH AVE + MOREWOOD AVE',1167,71B,INBOUND,2023-12-15,15:12,15:29,15:28
6026,2023-12-15T15:08,'FIFTH  AVE + ATWOOD ST',36,61A,INBOUND,2023-12-15,14:34,15:29,15:25
6028,2023-12-15T15:08,'FORBES + MURRAY FS',7096,61A,INBOUND,2023-12-15,14:49,15:30,15:27
6527,2023-12-15T15:08,'FORBES AVE + MURRAY AVE',7126,61C,OUTBOUND,2023-12-15,14:49,15:30,15:15
6529,2023-12-15T15:08,'FORBES AVE + MURRAY AVE',7126,61A,OUTBOUND,2023-12-15,15:04,15:30,15:29
9441,2023-12-15T15:08,'FIFTH  AVE + ATWOOD ST',36,71D,OUTBOUND,2023-12-15,15:30,15:30,16:34
6528,2023-12-15T15:08,'FORBES AVE + MURRAY AVE',7126,61B,OUTBOUND,2023-12-15,14:51,15:31,15:19
10484,2023-12-15T15:08,'FIFTH  AVE + ATWOOD ST',36,P3,INBOUND,2023-12-15,15:07,15:32,15:30
6531,2023-12-15T15:03,'FORBES AVE + MURRAY AVE',7126,61B,OUTBOUND,2023-12-15,15:08,15:32,15:37
8866,2023-12-15T15:08,'FIFTH  AVE + ATWOOD ST',36,75,INBOUND,2023-12-15,14:35,15:32,15:23
6027,2023-12-15T15:08,'FIFTH  AVE + ATWOOD ST',36,61B,INBOUND,2023-12-15,14:47,15:33,15:32
6530,2023-12-15T15:08,'FORBES AVE + MURRAY AVE',7126,61C,OUTBOUND,2023-12-15,15:07,15:33,15:35
9440,2023-12-15T15:08,'FIFTH AVE + OAKLAND AVE',2565,71C,OUTBOUND,2023-12-15,15:27,15:33,15:33
9442,2023-12-15T15:08,'FIFTH  AVE + ATWOOD ST',36,71A,OUTBOUND,2023-12-15,15:34,15:34,20:54
5944,2023-12-15T15:08,'FORBES AVE + MOREWOOD (CARNEGIE MELLON)',7117,61D,OUTBOUND,2023-12-15,15:08,15:34,15:27
9060,2023-12-15T15:08,'HIGHLAND AVE + BAUM',19383,71B,INBOUND,2023-12-15,15:27,15:35,15:35
10731,2023-12-15T15:08,'FIFTH AVE + OAKLAND AVE',2565,71B,OUTBOUND,2023-12-15,15:10,15:35,15:26
6811,2023-12-15T15:08,'FORBES AVE + MOREWOOD AVE FS (CARNEGIE MELLON)',4407,61D,INBOUND,2023-12-15,14:54,15:35,15:30
9438,2023-12-15T15:08,'FIFTH AVE + MOREWOOD AVE',1177,71D,OUTBOUND,2023-12-15,15:15,15:36,15:28
6028,2023-12-15T15:08,'FORBES AVE + MOREWOOD AVE FS (CARNEGIE MELLON)',4407,61A,INBOUND,2023-12-15,14:49,15:36,15:32
9058,2023-12-15T15:08,'FIFTH  AVE + ATWOOD ST',36,71B,INBOUND,2023-12-15,15:12,15:36,15:35
9441,2023-12-15T15:08,'FIFTH AVE + OAKLAND AVE',2565,71D,OUTBOUND,2023-12-15,15:30,15:37,15:37
9542,2023-12-15T15:08,'FIFTH AVE + OAKLAND AVE',2565,75,OUTBOUND,2023-12-15,15:27,15:38,15:38
